stop_id,stop_code,stop_name,stop_desc,stop_lat,stop_lon,zone_id,stop_url,location_type,parent_station,wheelchair_boarding,stop_timezone,platform_code,vehicle_type
NSR:StopPlace:536,,Brakerøya stasjon,,59.74379,10.232988,,,1,,2,,,100
NSR:StopPlace:415,,Askim,,59.58153,11.163291,,,1,,2,,,700
NSR:StopPlace:657,,Slitu,,59.566826,11.261528,,,1,,2,,,700
NSR:StopPlace:414,,Varhaug,,58.61878,5.64583,,,1,,2,,,700
NSR:StopPlace:659,,Trondheim S,,63.43627,10.398983,,,1,,2,,,100
NSR:StopPlace:416,,Vikhammer stasjon,,63.43875,10.623685,,,1,,2,,,100
NSR:StopPlace:658,,Snartemo stasjon,,58.331738,7.211468,,,1,,2,,,100
NSR:StopPlace:419,,Vikhamar,,63.43839,10.622669,,,1,,2,,,700
NSR:StopPlace:418,,Asker stasjon,,59.833344,10.434492,,,1,,2,,,100
NSR:StopPlace:5749,,Haugenstua stasjon,,59.95147,10.910823,,,1,,2,,,700
NSR:StopPlace:59912,,Oteråga,,67.29894,14.866943,,,1,,2,,,700
NSR:StopPlace:3571,,Greverud kirke,,59.774662,10.80423,,,1,,2,,,700
NSR:StopPlace:43208,,Statoil Rotvoll,,63.43672,10.479264,,,1,,2,,,700
NSR:StopPlace:1153,,Råde stasjon,,59.347332,10.867394,,,1,,2,,,700
NSR:StopPlace:411,,Varhaug stasjon,,58.61836,5.646136,,,1,,2,,,100
NSR:StopPlace:653,,Tønsberg stasjon,,59.271927,10.409468,,,1,,2,,,100
NSR:StopPlace:652,,Dovre stasjon,,61.98473,9.256808,,,1,,2,,,100
NSR:StopPlace:413,,Levanger stasjon,,63.744812,11.300468,,,1,,2,,,100
NSR:StopPlace:533,,Bryn,,59.908627,10.818226,,,1,,2,,,700
NSR:StopPlace:5511,,Strømmen stasjon,,59.948845,11.00181,,,1,,2,,,700
NSR:StopPlace:412,,Askim stasjon,,59.5818,11.163343,,,1,,2,,,100
NSR:StopPlace:654,,Slitu stasjon,,59.566933,11.261982,,,1,,2,,,100
NSR:StopPlace:6721,,Holmlia stasjon,,59.83497,10.796795,,,1,,2,,,700
NSR:StopPlace:45514,,Bergsgrav,,63.771877,11.469925,,,1,,2,,,700
NSR:StopPlace:305,,Nyland stasjon,,59.94394,10.871645,,,1,,2,,,100
NSR:StopPlace:426,,Lier stasjon,,59.76346,10.290438,,,1,,2,,,100
NSR:StopPlace:547,,Ås stasjon,,59.663277,10.794565,,,1,,2,,,100
NSR:StopPlace:425,,Vinstra stasjon,,61.595463,9.74704,,,1,,2,,,100
NSR:StopPlace:667,,Tomter stasjon,,59.65988,11.002309,,,1,,2,,,100
NSR:StopPlace:549,,Kløve stasjon,,60.66324,6.534993,,,1,,2,,,100
NSR:StopPlace:669,,Steinvik stasjon,,61.251217,11.324332,,,1,,2,,,100
NSR:StopPlace:427,,Atna stasjon,,61.732338,10.835149,,,1,,2,,,100
NSR:StopPlace:548,,Bergen stasjon,,60.39033,5.333283,,,1,,2,,,100
NSR:StopPlace:309,,Ogna stasjon,,58.519817,5.803262,,,1,,2,,,100
NSR:StopPlace:18353,,Skoppum stasjon,,59.390285,10.410929,,,1,,2,,,700
NSR:StopPlace:429,,Vikersund stasjon,,59.96919,9.998328,,,1,,2,,,100
NSR:StopPlace:2591,,Kambo stasjon,,59.477516,10.693691,,,1,,2,,,700
NSR:StopPlace:420,,Lillehammer stasjon,,61.11491,10.461479,,,1,,2,,,100
NSR:StopPlace:662,,Sande stasjon,,59.585274,10.204766,,,1,,2,,,100
NSR:StopPlace:540,,Årnes stasjon,,60.123722,11.464874,,,1,,2,,,100
NSR:StopPlace:543,,Klepp stasjon,,58.771725,5.677767,,,1,,2,,,100
NSR:StopPlace:542,,Brumunddal stasjon,,60.88058,10.937622,,,1,,2,,,100
NSR:StopPlace:663,,Tolga stasjon,,62.408676,10.998259,,,1,,2,,,100
NSR:StopPlace:421,,Vigrestad stasjon,,58.570454,5.687402,,,1,,2,,,100
NSR:StopPlace:44664,,Grøndalselv,,64.69177,12.751721,,,1,,2,,,700
NSR:StopPlace:303,,Høvik stasjon,,59.901073,10.582718,,,1,,2,,,100
NSR:StopPlace:44665,,Gudå,,63.444057,11.620229,,,1,,2,,,700
NSR:StopPlace:545,,Brumunddal,,60.880653,10.938603,,,1,,2,,,700
NSR:StopPlace:423,,Vigrestad,,58.570538,5.687625,,,1,,2,,,700
NSR:StopPlace:6710,,Hauketo stasjon,,59.84612,10.803321,,,1,,2,,,700
NSR:StopPlace:3565,,Myrvoll stasjon,,59.787647,10.801172,,,1,,2,,,700
NSR:StopPlace:316,,Oppdal stasjon,,62.59311,9.694018,,,1,,2,,,100
NSR:StopPlace:679,,Trengereid,,60.429245,5.624395,,,1,,2,,,700
NSR:StopPlace:437,,Ljan,,59.85282,10.78502,,,1,,2,,,700
NSR:StopPlace:315,,Gjerdåker,,60.639606,6.463866,,,1,,2,,,700
NSR:StopPlace:318,,Geilo stasjon,,60.534557,8.206736,,,1,,2,,,100
NSR:StopPlace:439,,Ljosanbotn stasjon,,60.708675,6.90141,,,1,,2,,,100
NSR:StopPlace:15196,,Hokksund stasjon,,59.767265,9.91132,,,1,,2,,,700
NSR:StopPlace:319,,Høn stasjon,,59.843616,10.455937,,,1,,2,,,100
NSR:StopPlace:550,,Kløve stasjon,,60.6633,6.534923,,,1,,2,,,700
NSR:StopPlace:44550,,Grong stasjon,,64.45761,12.337079,,,1,,2,,,700
NSR:StopPlace:44792,,Hell,,63.4451,10.911431,,,1,,2,,,700
NSR:StopPlace:670,,Tomter,,59.65962,11.003219,,,1,,2,,,700
NSR:StopPlace:552,,Bergen,,60.390495,5.332859,,,1,,2,,,700
NSR:StopPlace:310,,Ogna,,58.519585,5.803791,,,1,,2,,,700
NSR:StopPlace:673,,Snåsa stasjon,,64.245766,12.380184,,,1,,2,,,100
NSR:StopPlace:551,,Ås,,59.663498,10.793788,,,1,,2,,,700
NSR:StopPlace:672,,Torp stasjon,,59.16559,10.266265,,,1,,2,,,100
NSR:StopPlace:554,,Åsen stasjon,,63.609463,11.052053,,,1,,2,,,100
NSR:StopPlace:433,,Ljan stasjon,,59.852688,10.784618,,,1,,2,,,100
NSR:StopPlace:432,,Vikersund,,59.968876,9.998499,,,1,,2,,,700
NSR:StopPlace:311,,Gjerdåker stasjon,,60.639412,6.463629,,,1,,2,,,100
NSR:StopPlace:553,,Kløfta stasjon,,60.075356,11.139169,,,1,,2,,,100
NSR:StopPlace:677,,Trengereid stasjon,,60.429024,5.624319,,,1,,2,,,100
NSR:StopPlace:435,,Vennesla stasjon,,58.253048,7.967451,,,1,,2,,,100
NSR:StopPlace:434,,Audnedal stasjon,,58.318928,7.367484,,,1,,2,,,100
NSR:StopPlace:555,,Breland stasjon,,58.19951,7.720393,,,1,,2,,,100
NSR:StopPlace:676,,Stoa stasjon,,58.465992,8.709398,,,1,,2,,,100
NSR:StopPlace:313,,Høybråten stasjon,,59.948093,10.927655,,,1,,2,,,100
NSR:StopPlace:327,,Gol,,60.69922,8.970908,,,1,,2,,,700
NSR:StopPlace:206,,Mariero stasjon,,58.933487,5.753836,,,1,,2,,,100
NSR:StopPlace:447,,Auma stasjon,,62.220604,10.658546,,,1,,2,,,100
NSR:StopPlace:46504,,Røra stasjon,,63.856983,11.401072,,,1,,2,,,700
NSR:StopPlace:689,,Sparbu,,63.91967,11.428751,,,1,,2,,,700
NSR:StopPlace:568,,Bryne stasjon,,58.73469,5.649535,,,1,,2,,,100
NSR:StopPlace:329,,Ilseng stasjon,,60.776943,11.222247,,,1,,2,,,100
NSR:StopPlace:208,,Fjellhamar stasjon,,59.94071,10.981768,,,1,,2,,,100
NSR:StopPlace:16396,,Mjøndalen stasjon,,59.75058,10.012007,,,1,,2,,,700
NSR:StopPlace:328,,Opphus stasjon,,61.331745,11.260506,,,1,,2,,,100
NSR:StopPlace:209,,Mariero,,58.934692,5.752767,,,1,,2,,,700
NSR:StopPlace:680,,Solbråtan stasjon,,59.80098,10.804343,,,1,,2,,,100
NSR:StopPlace:440,,Voss stasjon,,60.628983,6.410174,,,1,,2,,,100
NSR:StopPlace:561,,Brusand stasjon,,58.54036,5.748897,,,1,,2,,,100
NSR:StopPlace:2251,,Mysen stasjon,,59.55405,11.324528,,,1,,2,,,700
NSR:StopPlace:560,,Knapstad stasjon,,59.62636,11.032393,,,1,,2,,,100
NSR:StopPlace:681,,Trollhättan Centralstation,,58.28749,12.298653,,,1,,2,,,100
NSR:StopPlace:45530,,Verdal stasjon,,63.791348,11.484694,,,1,,2,,,700
NSR:StopPlace:200,,Finse stasjon,,60.601772,7.503823,,,1,,2,,,100
NSR:StopPlace:442,,Ljosanbotn,,60.70949,6.901563,,,1,,2,,,700
NSR:StopPlace:3463,,Heggedal stasjon,,59.7873,10.432465,,,1,,2,,,700
NSR:StopPlace:684,,Sonsveien stasjon,,59.51565,10.72585,,,1,,2,,,100
NSR:StopPlace:563,,Knapstad,,59.624046,11.032941,,,1,,2,,,700
NSR:StopPlace:562,,Åmotfors,,59.7688,12.36714,,,1,,2,,,700
NSR:StopPlace:441,,Auli stasjon,,60.03901,11.351679,,,1,,2,,,100
NSR:StopPlace:683,,Trollhättan,,58.286846,12.299867,,,1,,2,,,700
NSR:StopPlace:444,,Auli,,60.0389,11.351986,,,1,,2,,,700
NSR:StopPlace:202,,Holmlia stasjon,,59.835163,10.797166,,,1,,2,,,100
NSR:StopPlace:323,,Oppegård stasjon,,59.765453,10.812831,,,1,,2,,,100
NSR:StopPlace:443,,Voss stasjon,,60.628952,6.411315,,,1,,2,,,700
NSR:StopPlace:564,,Brusand,,58.541286,5.746429,,,1,,2,,,700
NSR:StopPlace:685,,Trofors stasjon,,65.53795,13.383086,,,1,,2,,,100
NSR:StopPlace:446,,Langlete stasjon,,62.9607,10.979059,,,1,,2,,,100
NSR:StopPlace:204,,Moss,,59.432587,10.656465,,,1,,2,,,700
NSR:StopPlace:325,,Oppegård,,59.766197,10.813233,,,1,,2,,,700
NSR:StopPlace:687,,Sparbu stasjon,,63.918934,11.428811,,,1,,2,,,100
NSR:StopPlace:324,,Gol stasjon,,60.69917,8.97123,,,1,,2,,,100
NSR:StopPlace:445,,Vieren stasjon,,60.709248,6.979523,,,1,,2,,,100
NSR:StopPlace:203,,Moss stasjon,,59.43194,10.657371,,,1,,2,,,100
NSR:StopPlace:217,,Melhus skysstasjon,,63.284603,10.27728,,,1,,2,,,700
NSR:StopPlace:16145,,Lier stasjon,,59.7624,10.2892,,,1,,2,,,700
NSR:StopPlace:337,,Oslo S,,59.910927,10.753276,,,1,,2,,,100
NSR:StopPlace:216,,Flaten stasjon,,58.636223,8.680754,,,1,,2,,,100
NSR:StopPlace:219,,Hamar stasjon,,60.791214,11.078141,,,1,,2,,,100
NSR:StopPlace:17352,,Brakerøya stasjon,,59.74373,10.231879,,,1,,2,,,700
NSR:StopPlace:3250,,Dal stasjon,,60.249073,11.203389,,,1,,2,,,700
NSR:StopPlace:691,,Spydeberg stasjon,,59.62107,11.079742,,,1,,2,,,100
NSR:StopPlace:690,,Trykkerud stasjon,,59.51211,9.336053,,,1,,2,,,100
NSR:StopPlace:451,,Lillestrøm stasjon,,59.95322,11.044676,,,1,,2,,,100
NSR:StopPlace:572,,Kolbotn stasjon,,59.810925,10.800822,,,1,,2,,,100
NSR:StopPlace:571,,Bryne,,58.734863,5.649116,,,1,,2,,,700
NSR:StopPlace:332,,Os stasjon,,62.497288,11.227196,,,1,,2,,,100
NSR:StopPlace:453,,Bergsgrav stasjon,,63.771145,11.471118,,,1,,2,,,100
NSR:StopPlace:211,,Mosjøen stasjon,,65.844795,13.200127,,,1,,2,,,100
NSR:StopPlace:695,,Tuen stasjon,,59.94293,11.102806,,,1,,2,,,100
NSR:StopPlace:5311,,Korsegården,,59.663437,10.745428,,,1,,2,,,700
NSR:StopPlace:210,,Heimdal stasjon,,63.35093,10.357636,,,1,,2,,,100
NSR:StopPlace:331,,Glåmos stasjon,,62.674526,11.416541,,,1,,2,,,100
NSR:StopPlace:573,,Örebro C,,59.27792,15.211217,,,1,,2,,,700
NSR:StopPlace:694,,Spikkestad stasjon,,59.745,10.343692,,,1,,2,,,100
NSR:StopPlace:576,,Kolbotn,,59.811035,10.801245,,,1,,2,,,700
NSR:StopPlace:45423,,Steinkjer stasjon,,64.01261,11.495423,,,1,,2,,,700
NSR:StopPlace:575,,Tverlandet stasjon,,67.30126,14.746538,,,1,,2,,,100
NSR:StopPlace:454,,Välsviken,,59.39149,13.582696,,,1,,2,,,700
NSR:StopPlace:4465,,Leirsund stasjon,,59.99978,11.086917,,,1,,2,,,700
NSR:StopPlace:696,,Spikkestad,,59.745926,10.340166,,,1,,2,,,700
NSR:StopPlace:699,,Tynset stasjon,,62.274715,10.776389,,,1,,2,,,100
NSR:StopPlace:215,,Heimdal,,63.350872,10.356465,,,1,,2,,,700
NSR:StopPlace:578,,Tverlandet,,67.29822,14.747587,,,1,,2,,,700
NSR:StopPlace:214,,Melhus skysstasjon,,63.28439,10.27675,,,1,,2,,,100
NSR:StopPlace:456,,Trondheim lufthavn stasjon,,63.453903,10.913887,,,1,,2,,,100
NSR:StopPlace:698,,Skiple stasjon,,60.681133,6.679814,,,1,,2,,,100
NSR:StopPlace:577,,Billingstad stasjon,,59.874783,10.483057,,,1,,2,,,100
NSR:StopPlace:349,,Upsete stasjon,,60.72538,7.011496,,,1,,2,,,100
NSR:StopPlace:4569,,Vestby stasjon,,59.60421,10.749717,,,1,,2,,,700
NSR:StopPlace:469,,Lerkendal stasjon,,63.413876,10.409237,,,1,,2,,,100
NSR:StopPlace:227,,Flå,,60.431683,9.473699,,,1,,2,,,700
NSR:StopPlace:106,,Skonseng stasjon,,66.36193,14.344207,,,1,,2,,,700
NSR:StopPlace:229,,Hommelvik stasjon,,63.411537,10.793982,,,1,,2,,,100
NSR:StopPlace:108,,Sandefjord stasjon,,59.135197,10.222754,,,1,,2,,,100
NSR:StopPlace:46409,,Snåsa stasjon,,64.24591,12.381093,,,1,,2,,,700
NSR:StopPlace:460,,Bjerka stasjon,,66.14984,13.83142,,,1,,2,,,100
NSR:StopPlace:580,,Koppang stasjon,,61.573112,11.044307,,,1,,2,,,100
NSR:StopPlace:462,,Ygre stasjon,,60.64536,6.507339,,,1,,2,,,100
NSR:StopPlace:461,,Lundamo stasjon,,63.15192,10.280175,,,1,,2,,,100
NSR:StopPlace:464,,Lundamo,,63.151806,10.280229,,,1,,2,,,700
NSR:StopPlace:222,,Myrdal stasjon,,60.73514,7.122762,,,1,,2,,,100
NSR:StopPlace:585,,Storekvina stasjon,,58.37964,6.957863,,,1,,2,,,100
NSR:StopPlace:101,,Sagdalen stasjon,,59.956264,11.015682,,,1,,2,,,100
NSR:StopPlace:584,,Bulken stasjon,,60.63058,6.284928,,,1,,2,,,100
NSR:StopPlace:3121,,Lensmannslia,,59.83143,10.433611,,,1,,2,,,700
NSR:StopPlace:103,,Haugastøl,,60.511227,7.87105,,,1,,2,,,700
NSR:StopPlace:586,,Kotsøy stasjon,,62.976433,10.561233,,,1,,2,,,100
NSR:StopPlace:223,,Flå stasjon,,60.432114,9.473168,,,1,,2,,,100
NSR:StopPlace:465,,Ygre,,60.645206,6.506647,,,1,,2,,,700
NSR:StopPlace:344,,Jessheim stasjon,,60.14224,11.176717,,,1,,2,,,100
NSR:StopPlace:3247,,Asker stasjon,,59.83331,10.433721,,,1,,2,,,700
NSR:StopPlace:468,,Ørneberget stasjon,,60.70377,6.940806,,,1,,2,,,100
NSR:StopPlace:347,,Jessheim stasjon,,60.142456,11.176757,,,1,,2,,,700
NSR:StopPlace:226,,Mysen stasjon,,59.553726,11.324217,,,1,,2,,,100
NSR:StopPlace:225,,Hamar,,60.79186,11.075845,,,1,,2,,,700
NSR:StopPlace:467,,Bjorli stasjon,,62.258537,8.201511,,,1,,2,,,100
NSR:StopPlace:104,,Skonseng stasjon,,66.362076,14.344668,,,1,,2,,,100
NSR:StopPlace:118,,Singsås stasjon,,62.95629,10.729145,,,1,,2,,,100
NSR:StopPlace:44117,,Hegra stasjon,,63.460827,11.103911,,,1,,2,,,700
NSR:StopPlace:4239,,Rånåsfoss stasjon,,60.029633,11.329066,,,1,,2,,,700
NSR:StopPlace:239,,Fredrikstad stasjon,,59.20888,10.950623,,,1,,2,,,100
NSR:StopPlace:117,,Elverum stasjon,,60.882854,11.546232,,,1,,2,,,100
NSR:StopPlace:359,,Grorud stasjon,,59.949757,10.887813,,,1,,2,,,100
NSR:StopPlace:238,,Nordby stasjon,,60.15552,11.18162,,,1,,2,,,100
NSR:StopPlace:16240,,Geilo stasjon,,60.534447,8.206825,,,1,,2,,,700
NSR:StopPlace:17692,,Sandefjord lufthavn Torp,,59.179104,10.252672,,,1,,2,,,700
NSR:StopPlace:17215,,Gulskogen gård,,59.746063,10.163791,,,1,,2,,,700
NSR:StopPlace:34434,,Flåm stasjon,,60.863503,7.113967,,,1,,2,,,700
NSR:StopPlace:590,,Bø stasjon,,59.409344,9.069206,,,1,,2,,,100
NSR:StopPlace:471,,Ørneberget,,60.701393,6.941075,,,1,,2,,,700
NSR:StopPlace:592,,Kopperå stasjon,,63.392063,11.848486,,,1,,2,,,100
NSR:StopPlace:44591,,Kopperå stasjon,,63.39195,11.846946,,,1,,2,,,700
NSR:StopPlace:591,,Storlien station,,63.316097,12.099945,,,1,,2,,,100
NSR:StopPlace:110,,Skogn stasjon,,63.70514,11.19399,,,1,,2,,,100
NSR:StopPlace:472,,Blakstad stasjon,,58.507435,8.648684,,,1,,2,,,100
NSR:StopPlace:351,,Grong stasjon,,64.458305,12.337443,,,1,,2,,,100
NSR:StopPlace:230,,Myrvoll stasjon,,59.786594,10.800449,,,1,,2,,,100
NSR:StopPlace:354,,Urdland stasjon,,60.67956,6.592897,,,1,,2,,,100
NSR:StopPlace:596,,Stavanger stasjon,,58.96649,5.732453,,,1,,2,,,100
NSR:StopPlace:475,,Leirsund stasjon,,59.999813,11.08682,,,1,,2,,,100
NSR:StopPlace:474,,Øyeflaten stasjon,,60.68018,6.627489,,,1,,2,,,100
NSR:StopPlace:111,,Högboda,,59.55709,13.051524,,,1,,2,,,700
NSR:StopPlace:44234,,Skatval kirke,,63.512276,10.858471,,,1,,2,,,700
NSR:StopPlace:356,,Urdland,,60.67967,6.593462,,,1,,2,,,700
NSR:StopPlace:477,,Øyeflaten stasjon,,60.680153,6.628256,,,1,,2,,,700
NSR:StopPlace:114,,Seimsgrend stasjon,,60.632442,6.236224,,,1,,2,,,100
NSR:StopPlace:46655,,Storlien station,,63.316326,12.100418,,,1,,2,,,700
NSR:StopPlace:597,,Bøylestad stasjon,,58.576607,8.705627,,,1,,2,,,100
NSR:StopPlace:234,,Mørkved stasjon,,67.28387,14.556891,,,1,,2,,,100
NSR:StopPlace:116,,Haltdalen stasjon,,62.92833,11.144176,,,1,,2,,,100
NSR:StopPlace:237,,Hovin stasjon,,63.098885,10.230251,,,1,,2,,,100
NSR:StopPlace:358,,Ustaoset stasjon,,60.496574,8.045222,,,1,,2,,,100
NSR:StopPlace:4489,,Lillestrøm bussterminal,,59.953896,11.043521,,,1,,2,,,700
NSR:StopPlace:357,,Jørstad stasjon,,64.20661,12.241623,,,1,,2,,,100
NSR:StopPlace:129,,Ski,,59.71823,10.835137,,,1,,2,,,700
NSR:StopPlace:17680,,Sande stasjon,,59.585068,10.206177,,,1,,2,,,700
NSR:StopPlace:15269,,Vestfossen stasjon,,59.734417,9.867784,,,1,,2,,,700
NSR:StopPlace:480,,Øksnavadporten stasjon,,58.786537,5.701518,,,1,,2,,,100
NSR:StopPlace:361,,Ustaoset,,60.49698,8.044598,,,1,,2,,,700
NSR:StopPlace:481,,Lassemoen stasjon,,64.69626,12.714856,,,1,,2,,,100
NSR:StopPlace:360,,Jørstad,,64.20713,12.246194,,,1,,2,,,700
NSR:StopPlace:44483,,Stjørdal stasjon,,63.469666,10.913716,,,1,,2,,,700
NSR:StopPlace:242,,Nærbø stasjon,,58.665825,5.640605,,,1,,2,,,100
NSR:StopPlace:363,,Grorud,,59.9499,10.886695,,,1,,2,,,700
NSR:StopPlace:120,,Sira stasjon,,58.417816,6.660472,,,1,,2,,,100
NSR:StopPlace:362,,Jåttåvågen stasjon,,58.91387,5.729129,,,1,,2,,,100
NSR:StopPlace:483,,Øksnavadporten stasjon,,58.7867,5.702336,,,1,,2,,,700
NSR:StopPlace:244,,Nærbø,,58.665165,5.640649,,,1,,2,,,700
NSR:StopPlace:123,,Skarnes stasjon,,60.253834,11.680465,,,1,,2,,,100
NSR:StopPlace:364,,Vaksdal stasjon,,60.4786,5.735231,,,1,,2,,,100
NSR:StopPlace:488,,Lesjaverk stasjon,,62.192474,8.538182,,,1,,2,,,100
NSR:StopPlace:246,,Nodeland stasjon,,58.157127,7.834778,,,1,,2,,,100
NSR:StopPlace:367,,Jåttåvågen,,58.913857,5.727833,,,1,,2,,,700
NSR:StopPlace:245,,Hokksund stasjon,,59.767204,9.910567,,,1,,2,,,100
NSR:StopPlace:487,,Blaker stasjon,,60.004955,11.301549,,,1,,2,,,100
NSR:StopPlace:369,,Kvål stasjon,,63.23336,10.279976,,,1,,2,,,100
NSR:StopPlace:127,,Ski stasjon,,59.718945,10.835027,,,1,,2,,,100
NSR:StopPlace:5565,,Sagdalen,,59.957268,11.016178,,,1,,2,,,700
NSR:StopPlace:247,,Froland stasjon,,58.529392,8.654536,,,1,,2,,,100
NSR:StopPlace:368,,Vakås stasjon,,59.849712,10.467072,,,1,,2,,,100
NSR:StopPlace:126,,Heggedal stasjon,,59.786785,10.431154,,,1,,2,,,100
NSR:StopPlace:489,,Östersund C,,63.171135,14.636761,,,1,,2,,,700
NSR:StopPlace:48292,,Valnesfjord trafikknutepunkt,,67.29933,15.191693,,,1,,2,,,700
NSR:StopPlace:700,,Skiple stasjon,,60.681103,6.679873,,,1,,2,,,700
NSR:StopPlace:703,,Sandnes Sentrum,,58.852184,5.737602,,,1,,2,,,700
NSR:StopPlace:702,,Sandnes Sentrum stasjon,,58.852306,5.736575,,,1,,2,,,100
NSR:StopPlace:704,,Stai stasjon,,61.494286,11.058855,,,1,,2,,,100
NSR:StopPlace:707,,Stabekk,,59.90805,10.607327,,,1,,2,,,700
NSR:StopPlace:706,,Stabekk stasjon,,59.90803,10.607257,,,1,,2,,,100
NSR:StopPlace:709,,Stange,,60.71767,11.194851,,,1,,2,,,700
NSR:StopPlace:708,,Stange stasjon,,60.71801,11.19458,,,1,,2,,,100
NSR:StopPlace:12650,,Strømshuguvegen,,61.242275,10.433751,,,1,,2,,,700
NSR:StopPlace:712,,Stjørdal stasjon,,63.470154,10.913654,,,1,,2,,,100
NSR:StopPlace:714,,Steinkjer stasjon,,64.01268,11.494591,,,1,,2,,,100
NSR:StopPlace:44835,,Skatval stasjon,,63.509056,10.826619,,,1,,2,,,700
NSR:StopPlace:716,,Strømmen stasjon,,59.949524,11.001614,,,1,,2,,,100
NSR:StopPlace:51129,,Bjerka stasjon,,66.149704,13.830988,,,1,,2,,,700
NSR:StopPlace:710,,Stanghelle stasjon,,60.549385,5.733674,,,1,,2,,,100
NSR:StopPlace:602,,Berkåk stasjon,,62.823006,10.014242,,,1,,2,,,100
NSR:StopPlace:1676,,Knapstad,,59.620434,11.03102,,,1,,2,,,700
NSR:StopPlace:603,,Støren stasjon,,63.05148,10.284855,,,1,,2,,,100
NSR:StopPlace:608,,Bråstad stasjon,,58.462776,8.689566,,,1,,2,,,100
NSR:StopPlace:609,,Kristiansand stasjon,,58.1456,7.987954,,,1,,2,,,100
NSR:StopPlace:9166,,Skavbakken,,60.63268,11.298633,,,1,,2,,,700
NSR:StopPlace:42547,,Melhus skysstasjon,,63.28475,10.277964,,,1,,2,,,700
NSR:StopPlace:600,,Stavanger,,58.966625,5.732917,,,1,,2,,,700
NSR:StopPlace:613,,Svingen stasjon,,59.92907,11.177606,,,1,,2,,,100
NSR:StopPlace:42795,,Leistadkrysset,,63.422523,10.62999,,,1,,2,,,700
NSR:StopPlace:617,,Kråkstad stasjon,,59.68354,10.890613,,,1,,2,,,100
NSR:StopPlace:44738,,Hegramo,,63.463932,11.115138,,,1,,2,,,700
NSR:StopPlace:616,,Svingen,,59.92873,11.176969,,,1,,2,,,700
NSR:StopPlace:618,,Marienborg stasjon,,63.41843,10.38282,,,1,,2,,,100
NSR:StopPlace:32878,,Vaksdal senter,,60.47672,5.742274,,,1,,2,,,700
NSR:StopPlace:42437,,Marienborg stasjon,,63.417934,10.382497,,,1,,2,,,700
NSR:StopPlace:4983,,Nordby stasjon,,60.154793,11.181069,,,1,,2,,,700
NSR:StopPlace:3533,,Solbråtan stasjon,,59.800865,10.804793,,,1,,2,,,700
NSR:StopPlace:610,,Sandvika stasjon,,59.892902,10.525746,,,1,,2,,,100
NSR:StopPlace:624,,Sirevåg stasjon,,58.502686,5.807028,,,1,,2,,,100
NSR:StopPlace:5813,,Vormsund,,60.153915,11.414418,,,1,,2,,,700
NSR:StopPlace:626,,Karlstad Centralstation,,59.37809,13.498987,,,1,,2,,,700
NSR:StopPlace:507,,Bodø stasjon,,67.28635,14.390725,,,1,,2,,,100
NSR:StopPlace:44627,,Harran,,64.56126,12.492857,,,1,,2,,,700
NSR:StopPlace:628,,Darbu stasjon,,59.701588,9.800159,,,1,,2,,,100
NSR:StopPlace:506,,Larvik stasjon,,59.050156,10.031658,,,1,,2,,,100
NSR:StopPlace:509,,Larvik,,59.050453,10.030295,,,1,,2,,,700
NSR:StopPlace:629,,Kvam stasjon,,61.66488,9.7014,,,1,,2,,,100
NSR:StopPlace:508,,Ål stasjon,,60.626385,8.562126,,,1,,2,,,100
NSR:StopPlace:4728,,Sonsveien stasjon,,59.514812,10.726492,,,1,,2,,,700
NSR:StopPlace:2309,,Fredrikstad stasjon,,59.208847,10.949797,,,1,,2,,,700
NSR:StopPlace:50180,,Mørkved,,67.28334,14.55467,,,1,,2,,,700
NSR:StopPlace:620,,Kråkstad,,59.68337,10.890887,,,1,,2,,,700
NSR:StopPlace:501,,Lunde stasjon,,59.29895,9.101231,,,1,,2,,,100
NSR:StopPlace:500,,Bellingmo stasjon,,62.030094,10.78518,,,1,,2,,,100
NSR:StopPlace:621,,Dal stasjon,,60.248905,11.20256,,,1,,2,,,100
NSR:StopPlace:514,,Ålen stasjon,,62.846367,11.315089,,,1,,2,,,100
NSR:StopPlace:635,,Kongsvinger stasjon,,60.187458,12.003599,,,1,,2,,,100
NSR:StopPlace:513,,Kambo stasjon,,59.47781,10.692471,,,1,,2,,,100
NSR:StopPlace:637,,Degerfors,,59.2292,14.440879,,,1,,2,,,700
NSR:StopPlace:636,,Søberg stasjon,,63.26248,10.288965,,,1,,2,,,100
NSR:StopPlace:639,,Dale stasjon,,60.586315,5.815815,,,1,,2,,,100
NSR:StopPlace:518,,Bolstadøyri stasjon,,60.637936,5.957664,,,1,,2,,,100
NSR:StopPlace:519,,Kongsberg stasjon,,59.67222,9.650913,,,1,,2,,,100
NSR:StopPlace:32891,,Stanghelle sør,,60.551388,5.739479,,,1,,2,,,700
NSR:StopPlace:49087,,Lønsdal stasjon,,66.74253,15.462865,,,1,,2,,,700
NSR:StopPlace:510,,Bodø,,67.28626,14.390529,,,1,,2,,,700
NSR:StopPlace:631,,Darbu,,59.701946,9.800688,,,1,,2,,,700
NSR:StopPlace:1132,,Spydeberg stasjon,,59.62084,11.080385,,,1,,2,,,700
NSR:StopPlace:512,,Bodung stasjon,,60.085114,11.419889,,,1,,2,,,100
NSR:StopPlace:646,,Tangen stasjon,,60.61595,11.269596,,,1,,2,,,100
NSR:StopPlace:94,,Sarpsborg stasjon,,59.285957,11.118068,,,1,,2,,,100
NSR:StopPlace:645,,Dombås stasjon,,62.068703,9.125487,,,1,,2,,,100
NSR:StopPlace:403,,Ler stasjon,,63.19787,10.298186,,,1,,2,,,700
NSR:StopPlace:95,,Harran,,64.56852,12.493915,,,1,,2,,,700
NSR:StopPlace:406,,Lesja stasjon,,62.11853,8.853838,,,1,,2,,,100
NSR:StopPlace:648,,Slependen stasjon,,59.885628,10.502743,,,1,,2,,,100
NSR:StopPlace:96,,Sarpsborg,,59.286198,11.117385,,,1,,2,,,700
NSR:StopPlace:97,,Skotbu stasjon,,59.66571,10.946047,,,1,,2,,,100
NSR:StopPlace:408,,Arvika,,59.653744,12.591663,,,1,,2,,,700
NSR:StopPlace:529,,Bryn stasjon,,59.90836,10.81861,,,1,,2,,,100
NSR:StopPlace:98,,Skotbu,,59.66511,10.947485,,,1,,2,,,700
NSR:StopPlace:99,,Haugastøl stasjon,,60.51125,7.869977,,,1,,2,,,100
NSR:StopPlace:407,,Vegårshei stasjon,,58.76074,8.855721,,,1,,2,,,100
NSR:StopPlace:528,,Kil,,59.504513,13.316232,,,1,,2,,,700
NSR:StopPlace:649,,Tangen,,60.615887,11.270581,,,1,,2,,,700
NSR:StopPlace:90,,Harran stasjon,,64.568726,12.493941,,,1,,2,,,100
NSR:StopPlace:91,,Steinberg stasjon,,59.75955,9.961711,,,1,,2,,,100
NSR:StopPlace:93,,Steinberg,,59.75964,9.961083,,,1,,2,,,700
NSR:StopPlace:640,,Sørumsand stasjon,,59.985878,11.240178,,,1,,2,,,100
NSR:StopPlace:400,,Ler stasjon,,63.197796,10.298162,,,1,,2,,,100
NSR:StopPlace:521,,Bolstadøyri,,60.637974,5.957422,,,1,,2,,,700
NSR:StopPlace:3300,,Gullhella sykehjem,,59.81457,10.446138,,,1,,2,,,700
NSR:StopPlace:641,,Kongsvoll stasjon,,62.30705,9.606088,,,1,,2,,,100
NSR:StopPlace:520,,Åndalsnes stasjon,,62.56741,7.69062,,,1,,2,,,100
NSR:StopPlace:2211,,Slitu,,59.580128,11.262403,,,1,,2,,,700
NSR:StopPlace:402,,Arna,,60.4204,5.467922,,,1,,2,,,700
NSR:StopPlace:523,,Bondivann stasjon,,59.820312,10.43306,,,1,,2,,,100
NSR:StopPlace:522,,Kongsberg,,59.67377,9.646531,,,1,,2,,,700
NSR:StopPlace:401,,Vestfossen stasjon,,59.734318,9.86745,,,1,,2,,,100
NSR:StopPlace:83,,Røyken,,59.746902,10.390563,,,1,,2,,,700
NSR:StopPlace:84,,Råde stasjon,,59.34739,10.86621,,,1,,2,,,100
NSR:StopPlace:87,,Skeiane stasjon,,58.847034,5.733579,,,1,,2,,,100
NSR:StopPlace:88,,Egersund,,58.461185,6.003577,,,1,,2,,,700
NSR:StopPlace:80,,Røyken stasjon,,59.746677,10.389826,,,1,,2,,,100
NSR:StopPlace:81,,Hanestad stasjon,,61.83797,10.878675,,,1,,2,,,100
NSR:StopPlace:82,,Egersund stasjon,,58.461143,6.002341,,,1,,2,,,100
NSR:StopPlace:30810,,Bergen busstasjon,,60.388172,5.334109,,,1,,2,,,700
NSR:StopPlace:9673,,Skarnes stasjon,,60.254105,11.681054,,,1,,2,,,700
NSR:StopPlace:47365,,Røssvoll Joker,,66.356636,14.321533,,,1,,2,,,700
NSR:StopPlace:47368,,Osen,,66.05676,13.571421,,,1,,2,,,700
NSR:StopPlace:72,,Rygge,,59.378113,10.748204,,,1,,2,,,700
NSR:StopPlace:73,,Ed station,,58.913666,11.933102,,,1,,2,,,100
NSR:StopPlace:74,,Røra stasjon,,63.856827,11.401494,,,1,,2,,,100
NSR:StopPlace:77,,Røkland stasjon,,66.9817,15.3133,,,1,,2,,,100
NSR:StopPlace:79,,Røkland,,66.98591,15.317722,,,1,,2,,,700
NSR:StopPlace:8,,Paradis stasjon,,58.9561,5.742198,,,1,,2,,,100
NSR:StopPlace:17700,,Tønsberg stasjon,,59.271343,10.409982,,,1,,2,,,700
NSR:StopPlace:70,,Rygge stasjon,,59.377895,10.747897,,,1,,2,,,100
NSR:StopPlace:71,,Hallingskeid stasjon,,60.66792,7.252248,,,1,,2,,,100
NSR:StopPlace:1,,Drangedal stasjon,,59.096264,9.064246,,,1,,2,,,100
NSR:StopPlace:4091,,Sørumsand stasjon,,59.986053,11.241618,,,1,,2,,,700
NSR:StopPlace:2,,Oslo S Trelastgata,ved spor 19,59.909584,10.755165,,,1,,2,,,700
NSR:StopPlace:30940,,Bulken E16,,60.631252,6.277571,,,1,,2,,,700
NSR:StopPlace:6,,Greverud stasjon,,59.773293,10.806068,,,1,,2,,,100
NSR:StopPlace:3,,Gudå stasjon,,63.443825,11.618004,,,1,,2,,,100
NSR:StopPlace:4,,Otta stasjon,,61.77228,9.536819,,,1,,2,,,100
NSR:StopPlace:41831,,Hommelvik stasjon,,63.41145,10.794617,,,1,,2,,,700
NSR:StopPlace:62,,Rosenholm,,59.823627,10.796493,,,1,,2,,,700
NSR:StopPlace:63,,Eidsberg stasjon,,59.513466,11.303643,,,1,,2,,,100
NSR:StopPlace:64,,Rakkestad stasjon,,59.427258,11.339387,,,1,,2,,,100
NSR:StopPlace:60,,Rosenholm stasjon,,59.823624,10.797858,,,1,,2,,,100
NSR:StopPlace:5091,,Vevelstad stasjon,,59.75654,10.839367,,,1,,2,,,700
NSR:StopPlace:45088,,Skogn stasjon,,63.705006,11.194055,,,1,,2,,,700
NSR:StopPlace:59,,Røstad,,63.752995,11.318925,,,1,,2,,,700
NSR:StopPlace:27615,,Klepp stasjon,,58.772217,5.678373,,,1,,2,,,700
NSR:StopPlace:50,,Drevvatn,,66.07134,13.455433,,,1,,2,,,700
NSR:StopPlace:51,,Haga stasjon,,60.05393,11.37354,,,1,,2,,,100
NSR:StopPlace:53,,Røros stasjon,,62.574745,11.379087,,,1,,2,,,100
NSR:StopPlace:54,,Røstad stasjon,,63.752987,11.319091,,,1,,2,,,100
NSR:StopPlace:56,,Haga stasjon,,60.053932,11.375407,,,1,,2,,,700
NSR:StopPlace:57,,Rotvoll stasjon,,63.436665,10.4807,,,1,,2,,,100
NSR:StopPlace:15986,,Ål stasjon,,60.62658,8.560687,,,1,,2,,,700
NSR:StopPlace:42827,,Lerkendal gård,,63.412846,10.408835,,,1,,2,,,700
NSR:StopPlace:47275,,Majavatn,,65.164536,13.368198,,,1,,2,,,700
NSR:StopPlace:49216,,Røklandsenteret,,66.98147,15.315283,,,1,,2,,,700
NSR:StopPlace:49,,Rognan stasjon,,67.09345,15.398428,,,1,,2,,,100
NSR:StopPlace:40,,Ronglan,,63.666344,11.113135,,,1,,2,,,700
NSR:StopPlace:41,,Hanaborg stasjon,,59.93899,10.965481,,,1,,2,,,100
NSR:StopPlace:42,,Reimegrend stasjon,,60.678238,6.730762,,,1,,2,,,100
NSR:StopPlace:43,,Reimegrend,,60.678234,6.731537,,,1,,2,,,700
NSR:StopPlace:44,,Drevvatn stasjon,,66.071304,13.455527,,,1,,2,,,100
NSR:StopPlace:32913,,Dale stasjon,,60.586395,5.815459,,,1,,2,,,700
NSR:StopPlace:38,,Ronglan stasjon,,63.66629,11.113325,,,1,,2,,,100
NSR:StopPlace:6089,,Brynseng T,,59.90962,10.813749,,,1,,2,,,700
NSR:StopPlace:41742,,Trondheim S,,63.436108,10.40108,,,1,,2,,,700
NSR:StopPlace:31,,Rognes stasjon,,63.004704,10.458553,,,1,,2,,,100
NSR:StopPlace:35,,Rise stasjon,,58.46852,8.623777,,,1,,2,,,100
NSR:StopPlace:13425,,Ringebu skysstasjon,,61.52951,10.138547,,,1,,2,,,700
NSR:StopPlace:50104,,Rognan stasjon,,67.09362,15.398854,,,1,,2,,,700
NSR:StopPlace:26970,,Moi stasjon,,58.457928,6.55147,,,1,,2,,,700
NSR:StopPlace:47174,,Mosjøen stasjon,,65.84439,13.200561,,,1,,2,,,700
NSR:StopPlace:50580,,Strømsnes,,67.299545,15.185358,,,1,,2,,,700
NSR:StopPlace:25,,Dunderland stasjon,,66.44616,14.837782,,,1,,2,,,100
NSR:StopPlace:58188,,Kristinehamn Resecentrum,,59.316452,14.107748,,,1,,2,,,700
NSR:StopPlace:27,,Rånåsfoss stasjon,,60.029224,11.327921,,,1,,2,,,100
NSR:StopPlace:29,,Gyland stasjon,,58.384308,6.837409,,,1,,2,,,100
NSR:StopPlace:20,,Reitan stasjon,,62.80743,11.379186,,,1,,2,,,100
NSR:StopPlace:21,,Drammen,,59.740086,10.203426,,,1,,2,,,700
NSR:StopPlace:23,,Rena stasjon,,61.134586,11.369849,,,1,,2,,,100
NSR:StopPlace:17,,Ringebu stasjon,,61.529255,10.139346,,,1,,2,,,100
NSR:StopPlace:18,,Gulskogen stasjon,,59.743896,10.160511,,,1,,2,,,100
NSR:StopPlace:10,,Paradis,,58.95627,5.741593,,,1,,2,,,700
NSR:StopPlace:11,,Drammen stasjon,,59.740105,10.205235,,,1,,2,,,100
NSR:StopPlace:12,,Porsgrunn stasjon,,59.139362,9.658688,,,1,,2,,,100
NSR:StopPlace:13,,Porsgrunn stasjon,,59.13939,9.658522,,,1,,2,,,700
NSR:StopPlace:59289,,Kløfta E6 Skibakk,,60.078297,11.150978,,,1,,2,,,700
NSR:StopPlace:60158,,Oslo Tollbugata,,59.909046,10.748821,,,1,,2,,,700
NSR:StopPlace:19974,,Skien stasjon,,59.218716,9.603063,,,1,,2,,,700
NSR:StopPlace:491,,Blaker,,60.005123,11.30184,,,1,,2,,,700
NSR:StopPlace:3291,,Bondi skole,,59.823055,10.435844,,,1,,2,,,700
NSR:StopPlace:372,,Valnesfjord stasjon,,67.299446,15.19201,,,1,,2,,,100
NSR:StopPlace:493,,Blommenholm stasjon,,59.897266,10.555106,,,1,,2,,,100
NSR:StopPlace:250,,Nelaug stasjon,,58.6576,8.630423,,,1,,2,,,100
NSR:StopPlace:253,,Hegra stasjon,,63.460976,11.103511,,,1,,2,,,100
NSR:StopPlace:132,,Stokke stasjon,,59.221355,10.300377,,,1,,2,,,100
NSR:StopPlace:374,,Göteborg Centralstation,,57.709156,11.972901,,,1,,2,,,100
NSR:StopPlace:373,,Kvål,,63.23345,10.279579,,,1,,2,,,700
NSR:StopPlace:131,,Edane,,59.627148,12.829669,,,1,,2,,,700
NSR:StopPlace:4021,,Sandefjord stasjon,,59.13516,10.222424,,,1,,2,,,700
NSR:StopPlace:255,,Frogner stasjon,,60.022865,11.103267,,,1,,2,,,100
NSR:StopPlace:254,,Nerdrum stasjon,,59.92293,11.141035,,,1,,2,,,100
NSR:StopPlace:375,,Langhus stasjon,,59.749702,10.836629,,,1,,2,,,100
NSR:StopPlace:133,,Heia stasjon,,59.473106,11.329735,,,1,,2,,,100
NSR:StopPlace:496,,Öxnered station,,58.359177,12.274513,,,1,,2,,,100
NSR:StopPlace:136,,Skien stasjon,,59.21921,9.603542,,,1,,2,,,100
NSR:StopPlace:256,,Nerdrum,,59.923096,11.141681,,,1,,2,,,700
NSR:StopPlace:9835,,Moelv stasjon,,60.93019,10.698683,,,1,,2,,,700
NSR:StopPlace:259,,Holmestrand stasjon,,59.490314,10.31057,,,1,,2,,,100
NSR:StopPlace:258,,Frogner,,60.023552,11.105205,,,1,,2,,,700
NSR:StopPlace:58415,,Oteråga stasjon,,67.29918,14.870773,,,1,,2,,,100
NSR:StopPlace:260,,Nesbyen stasjon,,60.576725,9.113014,,,1,,2,,,100
NSR:StopPlace:380,,Arendal stasjon,,58.464836,8.769619,,,1,,2,,,100
NSR:StopPlace:141,,Hell stasjon,,63.446007,10.896624,,,1,,2,,,100
NSR:StopPlace:262,,Nesbyen,,60.577038,9.112371,,,1,,2,,,700
NSR:StopPlace:261,,Ganddal stasjon,,58.823277,5.717169,,,1,,2,,,100
NSR:StopPlace:382,,Lindeberg stasjon,,60.039448,11.128002,,,1,,2,,,100
NSR:StopPlace:140,,Skoppum stasjon,,59.391182,10.411126,,,1,,2,,,100
NSR:StopPlace:143,,Evenstad stasjon,,61.423306,11.099389,,,1,,2,,,100
NSR:StopPlace:385,,Alna stasjon,,59.932423,10.835269,,,1,,2,,,100
NSR:StopPlace:264,,Holmestrand,,59.49144,10.313213,,,1,,2,,,700
NSR:StopPlace:263,,Nordagutu stasjon,,59.418102,9.322557,,,1,,2,,,100
NSR:StopPlace:384,,Vestby stasjon,,59.603817,10.748631,,,1,,2,,,100
NSR:StopPlace:145,,Hell,,63.445927,10.899285,,,1,,2,,,700
NSR:StopPlace:144,,Skansen stasjon,,63.431114,10.377746,,,1,,2,,,100
NSR:StopPlace:265,,Ganddal stasjon,,58.823,5.71715,,,1,,2,,,700
NSR:StopPlace:386,,Lindeberg,,60.03975,11.127976,,,1,,2,,,700
NSR:StopPlace:268,,Hauerseter stasjon,,60.18463,11.19536,,,1,,2,,,100
NSR:StopPlace:388,,Lilleby stasjon,,63.439884,10.43238,,,1,,2,,,100
NSR:StopPlace:146,,Skansen,,63.431194,10.378787,,,1,,2,,,700
NSR:StopPlace:4377,,Lysaker stasjon,,59.913094,10.637742,,,1,,2,,,700
NSR:StopPlace:149,,Hellvik stasjon,,58.485817,5.897164,,,1,,2,,,100
NSR:StopPlace:269,,Oslo Lufthavn stasjon,,60.19298,11.096735,,,1,,2,,,100
NSR:StopPlace:148,,Skatval stasjon,,63.50862,10.825774,,,1,,2,,,100
NSR:StopPlace:32294,,Trengereiddal ved kiosk,,60.42441,5.627183,,,1,,2,,,700
NSR:StopPlace:390,,Verdal stasjon,,63.79101,11.484599,,,1,,2,,,100
NSR:StopPlace:392,,Alvdal stasjon,,62.10873,10.633052,,,1,,2,,,100
NSR:StopPlace:271,,Lademoen stasjon,,63.437225,10.416702,,,1,,2,,,100
NSR:StopPlace:391,,Lilleby stasjon,Lademoen,63.439884,10.432905,,,1,,2,,,700
NSR:StopPlace:152,,Skøyen stasjon,,59.92235,10.678831,,,1,,2,,,100
NSR:StopPlace:393,,Leangen stasjon,,63.437576,10.461661,,,1,,2,,,100
NSR:StopPlace:151,,Evanger stasjon,,60.647102,6.109525,,,1,,2,,,100
NSR:StopPlace:272,,Hauerseter,,60.18566,11.195873,,,1,,2,,,700
NSR:StopPlace:154,,Hellvik,,58.48606,5.897043,,,1,,2,,,700
NSR:StopPlace:275,,Namsskogan stasjon,,64.92586,13.152432,,,1,,2,,,100
NSR:StopPlace:396,,Vevelstad stasjon,,59.756046,10.837594,,,1,,2,,,100
NSR:StopPlace:5497,,Lørenskog stasjon,,59.94448,10.944906,,,1,,2,,,700
NSR:StopPlace:274,,Hunderfossen stasjon,,61.223648,10.438605,,,1,,2,,,100
NSR:StopPlace:48751,,Fauske stasjon,,67.26429,15.398101,,,1,,2,,,700
NSR:StopPlace:153,,Skøyen,,59.921955,10.677136,,,1,,2,,,700
NSR:StopPlace:277,,Hunderfossen,,61.22659,10.438602,,,1,,2,,,700
NSR:StopPlace:398,,Arna stasjon,,60.420116,5.466125,,,1,,2,,,100
NSR:StopPlace:156,,Evanger,,60.64713,6.109632,,,1,,2,,,700
NSR:StopPlace:155,,Selsbakk stasjon,,63.3894,10.373344,,,1,,2,,,100
NSR:StopPlace:397,,Leangen stasjon,,63.436584,10.464478,,,1,,2,,,700
NSR:StopPlace:9851,,Kongsvinger stasjon,,60.187378,12.004449,,,1,,2,,,700
NSR:StopPlace:276,,Namsskogan,,64.92597,13.152147,,,1,,2,,,700
NSR:StopPlace:158,,Hønefoss stasjon,,60.16929,10.249456,,,1,,2,,,100
NSR:StopPlace:47788,,Dunderland stasjon,,66.44602,14.837588,,,1,,2,,,700
NSR:StopPlace:279,,Nordstrand stasjon,,59.86373,10.785608,,,1,,2,,,100
NSR:StopPlace:278,,Oslo Lufthavn,,60.193398,11.096996,,,1,,2,,,700
NSR:StopPlace:157,,Lysaker stasjon,,59.913445,10.637247,,,1,,2,,,100
NSR:StopPlace:159,,Eidsvoll stasjon,,60.329674,11.247784,,,1,,2,,,100
NSR:StopPlace:18613,,Stokke stasjon,,59.22124,10.300603,,,1,,2,,,700
NSR:StopPlace:282,,Gausel stasjon,,58.89961,5.740223,,,1,,2,,,100
NSR:StopPlace:161,,Lønsdal stasjon,,66.74269,15.463101,,,1,,2,,,100
NSR:StopPlace:281,,Nordstrand,,59.864544,10.785883,,,1,,2,,,700
NSR:StopPlace:163,,Lørenskog stasjon,,59.944817,10.94521,,,1,,2,,,100
NSR:StopPlace:4030,,Sandvika bussterminal,,59.892906,10.524556,,,1,,2,,,700
NSR:StopPlace:283,,Notodden stasjon,,59.559235,9.266643,,,1,,2,,,100
NSR:StopPlace:165,,Hønefoss,,60.169216,10.249783,,,1,,2,,,700
NSR:StopPlace:5001,,Kløfta stasjon,,60.07493,11.138586,,,1,,2,,,700
NSR:StopPlace:44286,,Trondheim lufthavn,,63.454052,10.917269,,,1,,2,,,700
NSR:StopPlace:285,,Gausel,,58.89995,5.739833,,,1,,2,,,700
NSR:StopPlace:164,,Eidsvoll,,60.329872,11.2475,,,1,,2,,,700
NSR:StopPlace:288,,Nationaltheatret stasjon,,59.91539,10.728133,,,1,,2,,,100
NSR:StopPlace:167,,Haugenstua stasjon,,59.951565,10.908195,,,1,,2,,,100
NSR:StopPlace:166,,Eidsvoll Verk stasjon,,60.28784,11.169503,,,1,,2,,,100
NSR:StopPlace:287,,Hauketo stasjon,,59.84588,10.802873,,,1,,2,,,100
NSR:StopPlace:169,,Løten stasjon,,60.818707,11.342051,,,1,,2,,,100
NSR:StopPlace:289,,Gullhella stasjon,,59.80694,10.436274,,,1,,2,,,100
NSR:StopPlace:59313,,Rognan E6,,67.08384,15.385516,,,1,,2,,,700
NSR:StopPlace:291,,Nisterud stasjon,,59.30047,9.484872,,,1,,2,,,100
NSR:StopPlace:172,,Eidsvoll Verk,,60.287315,11.169389,,,1,,2,,,700
NSR:StopPlace:295,,Hvalstad stasjon,,59.858887,10.461827,,,1,,2,,,100
NSR:StopPlace:45021,,Åsen stasjon,,63.60956,11.051924,,,1,,2,,,700
NSR:StopPlace:173,,Majavatn stasjon,,65.16433,13.367963,,,1,,2,,,100
NSR:StopPlace:297,,Neslandsvatn stasjon,,58.971348,9.156474,,,1,,2,,,100
NSR:StopPlace:176,,Fauske stasjon,,67.26406,15.398943,,,1,,2,,,100
NSR:StopPlace:49622,,Messingslett kryss,,66.46917,14.856133,,,1,,2,,,700
NSR:StopPlace:175,,Hjerkinn stasjon,,62.22005,9.541277,,,1,,2,,,100
NSR:StopPlace:296,,Gjerstad stasjon,,58.869946,9.022946,,,1,,2,,,100
NSR:StopPlace:177,,Marnardal stasjon,,58.21292,7.512572,,,1,,2,,,100
NSR:StopPlace:47325,,Trofors stasjon,,65.53783,13.384149,,,1,,2,,,700
NSR:StopPlace:50869,,Mo stasjon,,66.3097,14.134421,,,1,,2,,,700
NSR:StopPlace:14115,,Lillehammer skysstasjon,,61.114742,10.461624,,,1,,2,,,700
NSR:StopPlace:181,,Meråker stasjon,,63.422375,11.759869,,,1,,2,,,700
NSR:StopPlace:180,,Meråker stasjon,,63.422756,11.760273,,,1,,2,,,100
NSR:StopPlace:183,,Mjølfjell stasjon,,60.693935,6.840481,,,1,,2,,,100
NSR:StopPlace:185,,Mjølfjell stasjon,,60.69382,6.840395,,,1,,2,,,700
NSR:StopPlace:187,,Mjøndalen stasjon,,59.750816,10.011297,,,1,,2,,,100
NSR:StopPlace:4296,,Fetsund stasjon,,59.927143,11.162291,,,1,,2,,,700
NSR:StopPlace:186,,Fetsund stasjon,,59.927135,11.162923,,,1,,2,,,100
NSR:StopPlace:5385,,Fjellhamar stasjon,,59.941135,10.981039,,,1,,2,,,700
NSR:StopPlace:188,,Hallsberg resecentrum,,59.066406,15.110034,,,1,,2,,,700
NSR:StopPlace:192,,Halden stasjon,,59.120358,11.384059,,,1,,2,,,100
NSR:StopPlace:191,,Moelv stasjon,,60.929916,10.698661,,,1,,2,,,100
NSR:StopPlace:196,,Fagerås,,59.519707,13.220168,,,1,,2,,,700
NSR:StopPlace:195,,Mo i Rana stasjon,,66.30953,14.132984,,,1,,2,,,100
NSR:StopPlace:198,,Halden,,59.11884,11.382543,,,1,,2,,,700
NSR:StopPlace:199,,Moi stasjon,,58.45789,6.551789,,,1,,2,,,100
NSR:StopPlace:26203,,Sirevåg stasjon,,58.502384,5.807132,,,1,,2,,,700
NSR:StopPlace:58597,,Lassemoen stasjon,,64.6961,12.714875,,,1,,2,,,700
NSR:StopPlace:59447,,Fonnfjell hotell,,63.41852,11.73754,,,1,,2,,,700
NSR:StopPlace:45170,,Levanger stasjon,,63.745102,11.300767,,,1,,2,,,700
NSR:StopPlace:58000,,Göteborg Nils Ericsonterminalen,,57.710236,11.97226,,,1,,2,,,700
NSR:StopPlace:6497,,Årnes stasjon,,60.123333,11.465076,,,1,,2,,,700
NSR:StopPlace:8316,,Charlottenberg station,,59.883976,12.298524,,,1,,2,,,700
NSR:Quay:361,,Hamar stasjon,,60.791176,11.078536,,,0,NSR:StopPlace:219,2,,3,100
NSR:Quay:120,,Røkland,,66.98591,15.317722,,,0,NSR:StopPlace:79,2,,,700
NSR:Quay:121,,Røyken stasjon,,59.746853,10.389936,,,0,NSR:StopPlace:80,2,,1,100
NSR:Quay:122,,Hanestad stasjon,,61.83812,10.878713,,,0,NSR:StopPlace:81,2,,2,100
NSR:Quay:364,,Myrdal stasjon,,60.735115,7.123151,,,0,NSR:StopPlace:222,2,,2,100
NSR:Quay:123,,Hanestad stasjon,,61.83808,10.878725,,,0,NSR:StopPlace:81,2,,1,100
NSR:Quay:365,,Myrdal stasjon,,60.73514,7.122625,,,0,NSR:StopPlace:222,2,,11,100
NSR:Quay:366,,Myrdal stasjon,,60.735115,7.123028,,,0,NSR:StopPlace:222,2,,1,100
NSR:Quay:124,,Egersund stasjon,,58.461147,6.001681,,,0,NSR:StopPlace:82,2,,15,100
NSR:Quay:367,,Flå stasjon,,60.43226,9.473358,,,0,NSR:StopPlace:223,2,,2,100
NSR:Quay:125,,Egersund stasjon,,58.461266,6.002325,,,0,NSR:StopPlace:82,2,,1,100
NSR:Quay:368,,Flå stasjon,,60.43221,9.473262,,,0,NSR:StopPlace:223,2,,1,100
NSR:Quay:126,,Egersund stasjon,,58.46133,6.002333,,,0,NSR:StopPlace:82,2,,2,100
NSR:Quay:358,,Hamar stasjon,,60.791042,11.07851,,,0,NSR:StopPlace:219,2,,5,100
NSR:Quay:118,,Røkland stasjon,,66.98158,15.313067,,,0,NSR:StopPlace:77,2,,1,100
NSR:Quay:7757,,Fetsund stasjon,,59.927143,11.162291,,,0,NSR:StopPlace:4296,2,,,700
NSR:Quay:370,,Hamar,,60.79186,11.075845,,,0,NSR:StopPlace:225,2,,,700
NSR:Quay:371,,Mysen stasjon,,59.553864,11.323943,,,0,NSR:StopPlace:226,2,,1,100
NSR:Quay:130,,Råde stasjon,,59.347336,10.866169,,,0,NSR:StopPlace:84,2,,1,100
NSR:Quay:373,,Mysen stasjon,,59.55386,11.323619,,,0,NSR:StopPlace:226,2,,3,100
NSR:Quay:374,,Flå,,60.431683,9.473699,,,0,NSR:StopPlace:227,2,,,700
NSR:Quay:10659,,Vormsund,,60.15393,11.414412,,,0,NSR:StopPlace:5813,2,,,700
NSR:Quay:133,,Skeiane stasjon,,58.847042,5.733721,,,0,NSR:StopPlace:87,2,,2,100
NSR:Quay:10658,,Vormsund,,60.153934,11.41434,,,0,NSR:StopPlace:5813,2,,,700
NSR:Quay:376,,Hommelvik stasjon,,63.41161,10.794057,,,0,NSR:StopPlace:229,2,,1,100
NSR:Quay:134,,Skeiane stasjon,,58.847065,5.73344,,,0,NSR:StopPlace:87,2,,4,100
NSR:Quay:10657,,Vormsund,,60.15386,11.414684,,,0,NSR:StopPlace:5813,2,,,700
NSR:Quay:377,,Hommelvik stasjon,,63.41169,10.794035,,,0,NSR:StopPlace:229,2,,2,100
NSR:Quay:135,,Skeiane stasjon,,58.84705,5.733608,,,0,NSR:StopPlace:87,2,,3,100
NSR:Quay:378,,Hommelvik stasjon,,63.411755,10.794022,,,0,NSR:StopPlace:229,2,,,100
NSR:Quay:137,,Egersund,,58.461185,6.003577,,,0,NSR:StopPlace:88,2,,,700
NSR:Quay:379,,Myrvoll stasjon,,59.78661,10.800557,,,0,NSR:StopPlace:230,2,,2,100
NSR:Quay:127,,Egersund stasjon,,58.4614,6.002339,,,0,NSR:StopPlace:82,2,,,100
NSR:Quay:81870,,Trofors stasjon,,65.53783,13.384149,,,0,NSR:StopPlace:47325,2,,,700
NSR:Quay:128,,Røyken,,59.746902,10.390563,,,0,NSR:StopPlace:83,2,,,700
NSR:Quay:129,,Råde stasjon,,59.347443,10.866251,,,0,NSR:StopPlace:84,2,,2,100
NSR:Quay:99392,,Göteborg Nils Ericsonterminalen,,57.710236,11.97226,,,0,NSR:StopPlace:58000,2,,,700
NSR:Quay:10661,,Vormsund,,60.15397,11.414089,,,0,NSR:StopPlace:5813,2,,,700
NSR:Quay:10660,,Vormsund,,60.15388,11.414565,,,0,NSR:StopPlace:5813,2,,,700
NSR:Quay:380,,Myrvoll stasjon,,59.78658,10.80034,,,0,NSR:StopPlace:230,2,,1,100
NSR:Quay:140,,Harran stasjon,,64.5687,12.49377,,,0,NSR:StopPlace:90,2,,2,100
NSR:Quay:141,,Steinberg stasjon,,59.759354,9.961679,,,0,NSR:StopPlace:91,2,,2,100
NSR:Quay:142,,Steinberg stasjon,,59.75945,9.961695,,,0,NSR:StopPlace:91,2,,1,100
NSR:Quay:385,,Mørkved stasjon,,67.28387,14.556891,,,0,NSR:StopPlace:234,2,,1,100
NSR:Quay:143,,Steinberg,,59.75964,9.961083,,,0,NSR:StopPlace:93,2,,,700
NSR:Quay:144,,Sarpsborg stasjon,,59.286037,11.118253,,,0,NSR:StopPlace:94,2,,2,100
NSR:Quay:388,,Hovin stasjon,,63.09901,10.230514,,,0,NSR:StopPlace:237,2,,2,100
NSR:Quay:389,,Hovin stasjon,,63.0988,10.230549,,,0,NSR:StopPlace:237,2,,1,100
NSR:Quay:148,,Harran,,64.56852,12.493915,,,0,NSR:StopPlace:95,2,,,700
NSR:Quay:139,,Harran stasjon,,64.56869,12.493807,,,0,NSR:StopPlace:90,2,,1,100
NSR:Quay:102095,,Vevelstad stasjon,,59.75652,10.839161,,,0,NSR:StopPlace:5091,2,,,700
NSR:Quay:390,,Nordby stasjon,,60.155518,11.181697,,,0,NSR:StopPlace:238,2,,1,100
NSR:Quay:391,,Fredrikstad stasjon,,59.20907,10.950701,,,0,NSR:StopPlace:239,2,,2,100
NSR:Quay:392,,Fredrikstad stasjon,,59.208977,10.950663,,,0,NSR:StopPlace:239,2,,1,100
NSR:Quay:150,,Sarpsborg,,59.286198,11.117385,,,0,NSR:StopPlace:96,2,,,700
NSR:Quay:152,,Skotbu stasjon,,59.66573,10.94613,,,0,NSR:StopPlace:97,2,,1,100
NSR:Quay:153,,Haugastøl stasjon,,60.511368,7.87002,,,0,NSR:StopPlace:99,2,,1,100
NSR:Quay:395,,Nærbø stasjon,,58.66585,5.640669,,,0,NSR:StopPlace:242,2,,2,100
NSR:Quay:397,,Nærbø stasjon,,58.665867,5.640602,,,0,NSR:StopPlace:242,2,,1,100
NSR:Quay:155,,Skotbu,,59.66511,10.947485,,,0,NSR:StopPlace:98,2,,,700
NSR:Quay:399,,Nærbø,,58.665165,5.640649,,,0,NSR:StopPlace:244,2,,,700
NSR:Quay:157,,Sagdalen stasjon,,59.956223,11.015668,,,0,NSR:StopPlace:101,2,,1,100
NSR:Quay:158,,Sagdalen stasjon,,59.956306,11.015696,,,0,NSR:StopPlace:101,2,,2,100
NSR:Quay:149,,Sarpsborg stasjon,,59.286,11.118137,,,0,NSR:StopPlace:94,2,,1,100
NSR:Quay:116019,,Oslo S Trelastgata,Taxi,59.909912,10.753008,,,0,NSR:StopPlace:2,2,,,700
NSR:Quay:116017,,Sandefjord lufthavn Torp,,59.179207,10.252283,,,0,NSR:StopPlace:17692,2,,,700
NSR:Quay:116018,,Sandefjord lufthavn Torp,,59.178864,10.25228,,,0,NSR:StopPlace:17692,2,,,700
NSR:Quay:160,,Haugastøl,,60.511196,7.871149,,,0,NSR:StopPlace:103,2,,,700
NSR:Quay:162,,Skonseng stasjon,,66.36198,14.344808,,,0,NSR:StopPlace:104,2,,1,100
NSR:Quay:167,,Skonseng stasjon,,66.36193,14.344207,,,0,NSR:StopPlace:106,2,,,700
NSR:Quay:12410,,Hauketo stasjon,,59.846172,10.80323,,,0,NSR:StopPlace:6710,2,,D,700
NSR:Quay:168,,Sandefjord stasjon,,59.135403,10.222735,,,0,NSR:StopPlace:108,2,,2,100
NSR:Quay:169,,Sandefjord stasjon,,59.13531,10.222704,,,0,NSR:StopPlace:108,2,,1,100
NSR:Quay:30086,,Gulskogen gård,,59.74617,10.163711,,,0,NSR:StopPlace:17215,2,,,700
NSR:Quay:12403,,Hauketo stasjon,,59.84654,10.803482,,,0,NSR:StopPlace:6710,2,,A,700
NSR:Quay:12404,,Hauketo stasjon,,59.845528,10.802878,,,0,NSR:StopPlace:6710,2,,G,700
NSR:Quay:12405,,Hauketo stasjon,,59.845516,10.803382,,,0,NSR:StopPlace:6710,2,,,700
NSR:Quay:12406,,Hauketo stasjon,,59.845947,10.803125,,,0,NSR:StopPlace:6710,2,,E,700
NSR:Quay:12407,,Hauketo stasjon,,59.846344,10.803281,,,0,NSR:StopPlace:6710,2,,C,700
NSR:Quay:12408,,Hauketo stasjon,,59.845734,10.803524,,,0,NSR:StopPlace:6710,2,,,700
NSR:Quay:12409,,Hauketo stasjon,,59.84574,10.803013,,,0,NSR:StopPlace:6710,2,,F,700
NSR:Quay:30087,,Gulskogen gård,,59.74596,10.16387,,,0,NSR:StopPlace:17215,2,,,700
NSR:Quay:76001,,Skatval kirke,,63.512276,10.858471,,,0,NSR:StopPlace:44234,2,,,700
NSR:Quay:1170,,Strømmen stasjon,,59.949593,11.001901,,,0,NSR:StopPlace:716,2,,1,100
NSR:Quay:170,,Sandefjord stasjon,,59.135456,10.222753,,,0,NSR:StopPlace:108,2,,3,100
NSR:Quay:173,,Högboda,,59.55709,13.051524,,,0,NSR:StopPlace:111,2,,,700
NSR:Quay:174,,Skogn stasjon,,63.705067,11.194395,,,0,NSR:StopPlace:110,2,,2,100
NSR:Quay:175,,Skogn stasjon,,63.705086,11.19425,,,0,NSR:StopPlace:110,2,,1,100
NSR:Quay:178,,Seimsgrend stasjon,,60.632416,6.236424,,,0,NSR:StopPlace:114,2,,1,100
NSR:Quay:12402,,Hauketo stasjon,,59.846302,10.803498,,,0,NSR:StopPlace:6710,2,,B,700
NSR:Quay:1162,,Stjørdal stasjon,,63.470165,10.913289,,,0,NSR:StopPlace:712,2,,2,100
NSR:Quay:1165,,Steinkjer stasjon,,64.012596,11.494239,,,0,NSR:StopPlace:714,2,,2,100
NSR:Quay:1164,,Steinkjer stasjon,,64.01263,11.494371,,,0,NSR:StopPlace:714,2,,1,100
NSR:Quay:99591,,Bergen busstasjon,,60.388744,5.333885,,,0,NSR:StopPlace:30810,2,,,700
NSR:Quay:10463,,Sandefjord stasjon,,59.13515,10.222432,,,0,NSR:StopPlace:4021,2,,,700
NSR:Quay:1166,,Steinkjer stasjon,,64.01135,11.496297,,,0,NSR:StopPlace:714,2,,6,100
NSR:Quay:1169,,Strømmen stasjon,,59.94956,11.002051,,,0,NSR:StopPlace:716,2,,,100
NSR:Quay:1168,,Strømmen stasjon,,59.94953,11.002211,,,0,NSR:StopPlace:716,2,,3,100
NSR:Quay:1161,,Stjørdal stasjon,,63.469658,10.913562,,,0,NSR:StopPlace:712,2,,11,100
NSR:Quay:1160,,Stjørdal stasjon,,63.470165,10.913501,,,0,NSR:StopPlace:712,2,,1,100
NSR:Quay:180,,Haltdalen stasjon,,62.92839,11.144377,,,0,NSR:StopPlace:116,2,,1,100
NSR:Quay:181,,Haltdalen stasjon,,62.928436,11.144407,,,0,NSR:StopPlace:116,2,,2,100
NSR:Quay:182,,Elverum stasjon,,60.88275,11.545971,,,0,NSR:StopPlace:117,2,,4,100
NSR:Quay:183,,Singsås stasjon,,62.956196,10.729297,,,0,NSR:StopPlace:118,2,,1,100
NSR:Quay:185,,Elverum stasjon,,60.882797,11.546341,,,0,NSR:StopPlace:117,2,,1,100
NSR:Quay:102049,,Stjørdal stasjon,,63.469566,10.913713,,,0,NSR:StopPlace:44483,2,,,700
NSR:Quay:186,,Elverum stasjon,,60.88278,11.546212,,,0,NSR:StopPlace:117,2,,2,100
NSR:Quay:187,,Elverum stasjon,,60.882763,11.546078,,,0,NSR:StopPlace:117,2,,3,100
NSR:Quay:102047,,Stjørdal stasjon,,63.469913,10.913713,,,0,NSR:StopPlace:44483,2,,,700
NSR:Quay:12430,,Holmlia stasjon,,59.8349,10.797031,,,0,NSR:StopPlace:6721,2,,C,700
NSR:Quay:102048,,Stjørdal stasjon,,63.469727,10.91371,,,0,NSR:StopPlace:44483,2,,,700
NSR:Quay:12431,,Holmlia stasjon,,59.834923,10.796661,,,0,NSR:StopPlace:6721,2,,D,700
NSR:Quay:189,,Sira stasjon,,58.41778,6.660668,,,0,NSR:StopPlace:120,2,,2,100
NSR:Quay:12432,,Holmlia stasjon,,59.835056,10.796361,,,0,NSR:StopPlace:6721,2,,A,700
NSR:Quay:77591,,Åsen stasjon,,63.60956,11.051924,,,0,NSR:StopPlace:45021,2,,,700
NSR:Quay:1152,,Stabekk stasjon,,59.90816,10.607187,,,0,NSR:StopPlace:706,2,,3,100
NSR:Quay:1151,,Stabekk stasjon,,59.90808,10.607298,,,0,NSR:StopPlace:706,2,,1,100
NSR:Quay:1154,,Stange stasjon,,60.717354,11.195323,,,0,NSR:StopPlace:708,2,,1,100
NSR:Quay:1153,,Stabekk,Bussoppstilling på sydsiden av stasjonen,59.90815,10.608287,,,0,NSR:StopPlace:707,2,,,700
NSR:Quay:12429,,Holmlia stasjon,,59.83503,10.796696,,,0,NSR:StopPlace:6721,2,,B,700
NSR:Quay:1156,,Stange,,60.71765,11.194848,,,0,NSR:StopPlace:709,2,,,700
NSR:Quay:1155,,Stange stasjon,,60.71739,11.1955,,,0,NSR:StopPlace:708,2,,2,100
NSR:Quay:1158,,Stanghelle stasjon,,60.549404,5.733584,,,0,NSR:StopPlace:710,2,,1,100
NSR:Quay:1157,,Stanghelle stasjon,,60.549366,5.733764,,,0,NSR:StopPlace:710,2,,2,100
NSR:Quay:1150,,Stabekk stasjon,,59.90802,10.607365,,,0,NSR:StopPlace:706,2,,2,100
NSR:Quay:102052,,Lillestrøm bussterminal,,59.95422,11.042612,,,0,NSR:StopPlace:4489,2,,17,700
NSR:Quay:102050,,Stjørdal stasjon,,63.46942,10.913723,,,0,NSR:StopPlace:44483,2,,,700
NSR:Quay:190,,Sira stasjon,,58.417793,6.660781,,,0,NSR:StopPlace:120,2,,1,100
NSR:Quay:194,,Skarnes stasjon,,60.253727,11.68061,,,0,NSR:StopPlace:123,2,,2,100
NSR:Quay:195,,Skarnes stasjon,,60.253765,11.680562,,,0,NSR:StopPlace:123,2,,1,100
NSR:Quay:1148,,Stai stasjon,,61.494274,11.058952,,,0,NSR:StopPlace:704,2,,1,100
NSR:Quay:197,,Heggedal stasjon,,59.786804,10.431068,,,0,NSR:StopPlace:126,2,,1,100
NSR:Quay:102058,,Kristinehamn Resecentrum,,59.31653,14.107588,,,0,NSR:StopPlace:58188,2,,A,700
NSR:Quay:198,,Heggedal stasjon,,59.78677,10.43124,,,0,NSR:StopPlace:126,2,,2,100
NSR:Quay:199,,Ski stasjon,,59.71929,10.834861,,,0,NSR:StopPlace:127,2,,1,100
NSR:Quay:102055,,Lillestrøm stasjon,,59.952938,11.044881,,,0,NSR:StopPlace:451,2,,9,100
NSR:Quay:1141,,Tynset stasjon,,62.27476,10.776205,,,0,NSR:StopPlace:699,2,,1,100
NSR:Quay:5741,,Dal stasjon,,60.249077,11.203469,,,0,NSR:StopPlace:3250,2,,,700
NSR:Quay:1140,,Skiple stasjon,,60.68116,6.679873,,,0,NSR:StopPlace:698,2,,1,100
NSR:Quay:1143,,Skiple stasjon,,60.681103,6.679873,,,0,NSR:StopPlace:700,2,,,700
NSR:Quay:1142,,Tynset stasjon,,62.27482,10.776078,,,0,NSR:StopPlace:699,2,,2,100
NSR:Quay:1145,,Sandnes Sentrum stasjon,,58.85231,5.736655,,,0,NSR:StopPlace:702,2,,5,100
NSR:Quay:1147,,Sandnes Sentrum,,58.852184,5.737602,,,0,NSR:StopPlace:703,2,,,700
NSR:Quay:1146,,Sandnes Sentrum stasjon,,58.852352,5.73651,,,0,NSR:StopPlace:702,2,,6,100
NSR:Quay:77121,,Hell,,63.445206,10.911937,,,0,NSR:StopPlace:44792,2,,,700
NSR:Quay:77120,,Hell,,63.44498,10.910746,,,0,NSR:StopPlace:44792,2,,,700
NSR:Quay:71422,,Trondheim S,,63.435932,10.402448,,,0,NSR:StopPlace:41742,2,,14,700
NSR:Quay:71424,,Trondheim S,,63.43615,10.400911,,,0,NSR:StopPlace:41742,2,,2,700
NSR:Quay:71420,,Trondheim S,,63.43615,10.401171,,,0,NSR:StopPlace:41742,2,,4,700
NSR:Quay:100080,,Bergen busstasjon,,60.386955,5.334462,,,0,NSR:StopPlace:30810,2,,P,700
NSR:Quay:761,,Lillestrøm stasjon,,59.953346,11.044579,,,0,NSR:StopPlace:451,2,,3,100
NSR:Quay:520,,Oppdal stasjon,,62.592766,9.693648,,,0,NSR:StopPlace:316,2,,,100
NSR:Quay:762,,Bergsgrav stasjon,,63.771133,11.471198,,,0,NSR:StopPlace:453,2,,1,100
NSR:Quay:763,,Bergsgrav stasjon,,63.77116,11.471038,,,0,NSR:StopPlace:453,2,,,100
NSR:Quay:522,,Geilo stasjon,,60.534775,8.206613,,,0,NSR:StopPlace:318,2,,2,100
NSR:Quay:764,,Välsviken,,59.391468,13.582723,,,0,NSR:StopPlace:454,2,,,700
NSR:Quay:754,,Lillestrøm stasjon,,59.953285,11.044622,,,0,NSR:StopPlace:451,2,,4,100
NSR:Quay:512,,Gjerdåker stasjon,,60.639412,6.463629,,,0,NSR:StopPlace:311,2,,1,100
NSR:Quay:996,,Kristiansand stasjon,,58.145813,7.98763,,,0,NSR:StopPlace:609,2,,5,100
NSR:Quay:755,,Lillestrøm stasjon,,59.953445,11.044508,,,0,NSR:StopPlace:451,2,,2,100
NSR:Quay:997,,Kristiansand stasjon,,58.14589,7.987626,,,0,NSR:StopPlace:609,2,,,100
NSR:Quay:756,,Lillestrøm stasjon,,59.953506,11.044468,,,0,NSR:StopPlace:451,2,,1,100
NSR:Quay:998,,Kristiansand stasjon,,58.145702,7.987638,,,0,NSR:StopPlace:609,2,,3,100
NSR:Quay:999,,Kristiansand stasjon,,58.14547,7.986867,,,0,NSR:StopPlace:609,2,,1,100
NSR:Quay:515,,Høybråten stasjon,,59.948135,10.927673,,,0,NSR:StopPlace:313,2,,2,100
NSR:Quay:16809,,Kongsvinger stasjon,,60.187378,12.004449,,,0,NSR:StopPlace:9851,2,,,700
NSR:Quay:516,,Høybråten stasjon,,59.948048,10.927637,,,0,NSR:StopPlace:313,2,,1,100
NSR:Quay:518,,Gjerdåker,,60.639606,6.463866,,,0,NSR:StopPlace:315,2,,,700
NSR:Quay:519,,Oppdal stasjon,,62.592846,9.693552,,,0,NSR:StopPlace:316,2,,1,100
NSR:Quay:71430,,Trondheim S,,63.43602,10.400648,,,0,NSR:StopPlace:41742,2,,,700
NSR:Quay:45386,,Sirevåg stasjon,,58.50234,5.80717,,,0,NSR:StopPlace:26203,2,,,700
NSR:Quay:45387,,Sirevåg stasjon,,58.502426,5.807095,,,0,NSR:StopPlace:26203,2,,,700
NSR:Quay:100090,,Skien stasjon,,59.218384,9.602534,,,0,NSR:StopPlace:19974,2,,,700
NSR:Quay:771,,Bjerka stasjon,,66.14981,13.83176,,,0,NSR:StopPlace:460,2,,1,100
NSR:Quay:530,,Gol stasjon,,60.69911,8.971621,,,0,NSR:StopPlace:324,2,,1,100
NSR:Quay:772,,Bjerka stasjon,,66.14978,13.831943,,,0,NSR:StopPlace:460,2,,2,100
NSR:Quay:773,,Lundamo stasjon,,63.152027,10.280161,,,0,NSR:StopPlace:461,2,,1,100
NSR:Quay:531,,Oppegård stasjon,,59.765316,10.81299,,,0,NSR:StopPlace:323,2,,2,100
NSR:Quay:774,,Lundamo stasjon,,63.152077,10.280086,,,0,NSR:StopPlace:461,2,,2,100
NSR:Quay:532,,Gol stasjon,,60.699017,8.971662,,,0,NSR:StopPlace:324,2,,2,100
NSR:Quay:775,,Ygre stasjon,,60.645275,6.507294,,,0,NSR:StopPlace:462,2,,1,100
NSR:Quay:12446,,Holmlia stasjon,,59.834496,10.797688,,,0,NSR:StopPlace:6721,2,,,700
NSR:Quay:533,,Oppegård,,59.766197,10.813233,,,0,NSR:StopPlace:325,2,,,700
NSR:Quay:523,,Geilo stasjon,,60.534695,8.206736,,,0,NSR:StopPlace:318,2,,1,100
NSR:Quay:766,,Trondheim lufthavn stasjon,,63.453903,10.913841,,,0,NSR:StopPlace:456,2,,1,100
NSR:Quay:524,,Høn stasjon,,59.843605,10.455959,,,0,NSR:StopPlace:319,2,,2,100
NSR:Quay:525,,Høn stasjon,,59.84364,10.455881,,,0,NSR:StopPlace:319,2,,1,100
NSR:Quay:529,,Oppegård stasjon,,59.76587,10.812467,,,0,NSR:StopPlace:323,2,,1,100
NSR:Quay:780,,Bjorli stasjon,,62.258568,8.201104,,,0,NSR:StopPlace:467,2,,1,100
NSR:Quay:781,,Ygre,,60.645206,6.506647,,,0,NSR:StopPlace:465,2,,,700
NSR:Quay:782,,Ørneberget stasjon,,60.70377,6.940806,,,0,NSR:StopPlace:468,2,,1,100
NSR:Quay:541,,Glåmos stasjon,,62.674404,11.416646,,,0,NSR:StopPlace:331,2,,1,100
NSR:Quay:783,,Lerkendal stasjon,,63.413876,10.409237,,,0,NSR:StopPlace:469,2,,1,100
NSR:Quay:542,,Glåmos stasjon,,62.674355,11.416546,,,0,NSR:StopPlace:331,2,,2,100
NSR:Quay:300,,Mjølfjell stasjon,,60.693928,6.840268,,,0,NSR:StopPlace:183,2,,1,100
NSR:Quay:543,,Os stasjon,,62.497463,11.227199,,,0,NSR:StopPlace:332,2,,2,100
NSR:Quay:301,,Mjølfjell stasjon,,60.693974,6.840159,,,0,NSR:StopPlace:183,2,,2,100
NSR:Quay:785,,Ørneberget,,60.701393,6.941075,,,0,NSR:StopPlace:471,2,,,700
NSR:Quay:544,,Os stasjon,,62.497402,11.227239,,,0,NSR:StopPlace:332,2,,1,100
NSR:Quay:777,,Lundamo,,63.151787,10.280242,,,0,NSR:StopPlace:464,2,,,700
NSR:Quay:535,,Gol,,60.699223,8.970919,,,0,NSR:StopPlace:327,2,,,700
NSR:Quay:779,,Bjorli stasjon,,62.258533,8.201023,,,0,NSR:StopPlace:467,2,,2,100
NSR:Quay:537,,Opphus stasjon,,61.33177,11.260608,,,0,NSR:StopPlace:328,2,,1,100
NSR:Quay:539,,Ilseng stasjon,,60.776787,11.222271,,,0,NSR:StopPlace:329,2,,1,100
NSR:Quay:10054,,Lørenskog stasjon,,59.944553,10.944918,,,0,NSR:StopPlace:5497,2,,,700
NSR:Quay:10053,,Lørenskog stasjon,,59.944405,10.944893,,,0,NSR:StopPlace:5497,2,,,700
NSR:Quay:790,,Leirsund stasjon,,60.00003,11.087018,,,0,NSR:StopPlace:475,2,,1,100
NSR:Quay:550,,Oslo S,,59.91074,10.755326,,,0,NSR:StopPlace:337,2,,6,100
NSR:Quay:792,,Øyeflaten stasjon,,60.680153,6.628256,,,0,NSR:StopPlace:477,2,,,700
NSR:Quay:551,,Oslo S,,59.910465,10.75506,,,0,NSR:StopPlace:337,2,,10,100
NSR:Quay:553,,Oslo S,,59.91068,10.755264,,,0,NSR:StopPlace:337,2,,7,100
NSR:Quay:795,,Øksnavadporten stasjon,,58.786568,5.701489,,,0,NSR:StopPlace:480,2,,1,100
NSR:Quay:554,,Oslo S,,59.910957,10.755531,,,0,NSR:StopPlace:337,2,,3,100
NSR:Quay:312,,Moelv stasjon,,60.92979,10.698278,,,0,NSR:StopPlace:191,2,,2,100
NSR:Quay:796,,Lassemoen stasjon,,64.69625,12.714878,,,0,NSR:StopPlace:481,2,,1,100
NSR:Quay:555,,Oslo S,,59.91054,10.755133,,,0,NSR:StopPlace:337,2,,9,100
NSR:Quay:313,,Moelv stasjon,,60.929836,10.69842,,,0,NSR:StopPlace:191,2,,1,100
NSR:Quay:303,,Mjølfjell stasjon,,60.69382,6.840395,,,0,NSR:StopPlace:185,2,,,700
NSR:Quay:787,,Blakstad stasjon,,58.50751,8.648673,,,0,NSR:StopPlace:472,2,,1,100
NSR:Quay:788,,Øyeflaten stasjon,,60.680214,6.627645,,,0,NSR:StopPlace:474,2,,1,100
NSR:Quay:304,,Fetsund stasjon,,59.92711,11.162964,,,0,NSR:StopPlace:186,2,,2,100
NSR:Quay:305,,Fetsund stasjon,,59.927162,11.162881,,,0,NSR:StopPlace:186,2,,1,100
NSR:Quay:306,,Mjøndalen stasjon,,59.751007,10.011429,,,0,NSR:StopPlace:187,2,,2,100
NSR:Quay:83678,,Fauske stasjon,,67.26429,15.398101,,,0,NSR:StopPlace:48751,2,,,700
NSR:Quay:308,,Mjøndalen stasjon,,59.750923,10.011406,,,0,NSR:StopPlace:187,2,,1,100
NSR:Quay:309,,Hallsberg resecentrum,,59.066437,15.110321,,,0,NSR:StopPlace:188,2,,A,700
NSR:Quay:561,,Oslo S,,59.910606,10.755195,,,0,NSR:StopPlace:337,2,,8,100
NSR:Quay:562,,Oslo S,,59.91005,10.754663,,,0,NSR:StopPlace:337,2,,16,100
NSR:Quay:320,,Fagerås,,59.519707,13.220168,,,0,NSR:StopPlace:196,2,,,700
NSR:Quay:563,,Oslo S,,59.910122,10.754734,,,0,NSR:StopPlace:337,2,,15,100
NSR:Quay:564,,Oslo S,,59.90998,10.754599,,,0,NSR:StopPlace:337,2,,17,100
NSR:Quay:322,,Halden,,59.11884,11.382543,,,0,NSR:StopPlace:198,2,,,700
NSR:Quay:565,,Oslo S,,59.911095,10.755664,,,0,NSR:StopPlace:337,2,,1,100
NSR:Quay:323,,Moi stasjon,,58.4579,6.551822,,,0,NSR:StopPlace:199,2,,2,100
NSR:Quay:566,,Oslo S,,59.91088,10.755461,,,0,NSR:StopPlace:337,2,,4,100
NSR:Quay:556,,Oslo S,,59.909843,10.754467,,,0,NSR:StopPlace:337,2,,19,100
NSR:Quay:798,,Lassemoen stasjon,,64.69627,12.71484,,,0,NSR:StopPlace:481,2,,2,100
NSR:Quay:314,,Halden stasjon,,59.120396,11.384026,,,0,NSR:StopPlace:192,2,,3,100
NSR:Quay:557,,Oslo S,,59.91026,10.754866,,,0,NSR:StopPlace:337,2,,13,100
NSR:Quay:799,,Øksnavadporten stasjon,,58.7867,5.702336,,,0,NSR:StopPlace:483,2,,,700
NSR:Quay:315,,Halden stasjon,,59.120377,11.384036,,,0,NSR:StopPlace:192,2,,2,100
NSR:Quay:10079,,Strømmen stasjon,,59.94891,11.001979,,,0,NSR:StopPlace:5511,2,,1,700
NSR:Quay:316,,Halden stasjon,,59.1203,11.384114,,,0,NSR:StopPlace:192,2,,1,100
NSR:Quay:559,,Oslo S,,59.910816,10.755399,,,0,NSR:StopPlace:337,2,,5,100
NSR:Quay:317,,Moelv stasjon,Buss for tog,60.93027,10.698369,,,0,NSR:StopPlace:9835,2,,,700
NSR:Quay:318,,Mo i Rana stasjon,,66.30953,14.133113,,,0,NSR:StopPlace:195,2,,1,100
NSR:Quay:319,,Mo i Rana stasjon,,66.309525,14.132855,,,0,NSR:StopPlace:195,2,,2,100
NSR:Quay:30927,,Tønsberg stasjon,,59.27144,10.410007,,,0,NSR:StopPlace:17700,2,,,700
NSR:Quay:570,,Oslo S,,59.911022,10.755594,,,0,NSR:StopPlace:337,2,,2,100
NSR:Quay:100299,,Göteborg Centralstation,,57.709793,11.974086,,,0,NSR:StopPlace:374,2,,14,100
NSR:Quay:571,,Oslo S,,59.9104,10.754999,,,0,NSR:StopPlace:337,2,,11,100
NSR:Quay:330,,Holmlia stasjon,,59.83516,10.79724,,,0,NSR:StopPlace:202,2,,2,100
NSR:Quay:331,,Moss stasjon,,59.431797,10.657175,,,0,NSR:StopPlace:203,2,,2,100
NSR:Quay:332,,Moss stasjon,,59.43185,10.657334,,,0,NSR:StopPlace:203,2,,1,100
NSR:Quay:333,,Moss stasjon,,59.43178,10.657134,,,0,NSR:StopPlace:203,2,,3,100
NSR:Quay:30922,,Sandefjord lufthavn Torp,,59.179047,10.252285,,,0,NSR:StopPlace:17692,2,,,700
NSR:Quay:334,,Moss,,59.43342,10.655572,,,0,NSR:StopPlace:204,2,,,700
NSR:Quay:567,,Oslo S,,59.909904,10.754527,,,0,NSR:StopPlace:337,2,,18,100
NSR:Quay:325,,Moi stasjon,,58.457882,6.551767,,,0,NSR:StopPlace:199,2,,1,100
NSR:Quay:568,,Oslo S,,59.910324,10.754926,,,0,NSR:StopPlace:337,2,,12,100
NSR:Quay:326,,Finse stasjon,,60.601883,7.50396,,,0,NSR:StopPlace:200,2,,1,100
NSR:Quay:569,,Oslo S,,59.91019,10.754798,,,0,NSR:StopPlace:337,2,,14,100
NSR:Quay:327,,Finse stasjon,,60.60193,7.504035,,,0,NSR:StopPlace:200,2,,2,100
NSR:Quay:81671,,Mosjøen stasjon,,65.84439,13.200561,,,0,NSR:StopPlace:47174,2,,,700
NSR:Quay:329,,Holmlia stasjon,,59.835163,10.797092,,,0,NSR:StopPlace:202,2,,1,100
NSR:Quay:27769,,Ål stasjon,,60.6266,8.560748,,,0,NSR:StopPlace:15986,2,,,700
NSR:Quay:26437,,Vestfossen stasjon,,59.734432,9.867769,,,0,NSR:StopPlace:15269,2,,,700
NSR:Quay:27768,,Ål stasjon,,60.626556,8.560626,,,0,NSR:StopPlace:15986,2,,,700
NSR:Quay:580,,Jessheim stasjon,,60.14245,11.177175,,,0,NSR:StopPlace:344,2,,2,100
NSR:Quay:11184,,Brynseng T,,59.909275,10.814213,,,0,NSR:StopPlace:6089,2,,,700
NSR:Quay:101598,,Drammen stasjon,,59.740227,10.205282,,,0,NSR:StopPlace:11,2,,5,100
NSR:Quay:47570,,Klepp stasjon,,58.772217,5.678373,,,0,NSR:StopPlace:27615,2,,,700
NSR:Quay:11185,,Brynseng T,,59.91,10.813484,,,0,NSR:StopPlace:6089,2,,,700
NSR:Quay:340,,Fjellhamar stasjon,,59.94074,10.981747,,,0,NSR:StopPlace:208,2,,2,100
NSR:Quay:582,,Jessheim stasjon,,60.142464,11.17706,,,0,NSR:StopPlace:344,2,,1,100
NSR:Quay:11186,,Brynseng T,,59.90939,10.813733,,,0,NSR:StopPlace:6089,2,,,700
NSR:Quay:341,,Mariero,,58.934696,5.752778,,,0,NSR:StopPlace:209,2,,,700
NSR:Quay:342,,Heimdal stasjon,,63.350937,10.357447,,,0,NSR:StopPlace:210,2,,1,100
NSR:Quay:100,,Eidsberg stasjon,,59.513466,11.303643,,,0,NSR:StopPlace:63,2,,1,100
NSR:Quay:343,,Mosjøen stasjon,,65.84475,13.199944,,,0,NSR:StopPlace:211,2,,1,100
NSR:Quay:101,,Rakkestad stasjon,,59.42718,11.339154,,,0,NSR:StopPlace:64,2,,2,100
NSR:Quay:344,,Heimdal stasjon,,63.35092,10.357801,,,0,NSR:StopPlace:210,2,,3,100
NSR:Quay:102,,Rakkestad stasjon,,59.42719,11.339285,,,0,NSR:StopPlace:64,2,,1,100
NSR:Quay:345,,Heimdal stasjon,,63.35093,10.357661,,,0,NSR:StopPlace:210,2,,2,100
NSR:Quay:587,,Jessheim stasjon,,60.142456,11.176757,,,0,NSR:StopPlace:347,2,,,700
NSR:Quay:346,,Mosjøen stasjon,,65.84472,13.199754,,,0,NSR:StopPlace:211,2,,2,100
NSR:Quay:578,,Jessheim stasjon,,60.142433,11.177309,,,0,NSR:StopPlace:344,2,,,100
NSR:Quay:337,,Mariero stasjon,,58.933495,5.75393,,,0,NSR:StopPlace:206,2,,1,100
NSR:Quay:338,,Mariero stasjon,,58.93348,5.753741,,,0,NSR:StopPlace:206,2,,2,100
NSR:Quay:339,,Fjellhamar stasjon,,59.94066,10.981817,,,0,NSR:StopPlace:208,2,,1,100
NSR:Quay:71411,,Trondheim S,,63.43615,10.401041,,,0,NSR:StopPlace:41742,2,,3,700
NSR:Quay:30905,,Sande stasjon,,59.585068,10.206177,,,0,NSR:StopPlace:17680,2,,,700
NSR:Quay:71412,,Trondheim S,,63.436035,10.401348,,,0,NSR:StopPlace:41742,2,,11,700
NSR:Quay:591,,Grong stasjon,,64.45844,12.337091,,,0,NSR:StopPlace:351,2,,2,100
NSR:Quay:71419,,Trondheim S,,63.43615,10.401561,,,0,NSR:StopPlace:41742,2,,7,700
NSR:Quay:350,,Heimdal,,63.350872,10.356465,,,0,NSR:StopPlace:215,2,,,700
NSR:Quay:592,,Grong stasjon,,64.45843,12.337215,,,0,NSR:StopPlace:351,2,,1,100
NSR:Quay:351,,Flaten stasjon,,58.636223,8.680754,,,0,NSR:StopPlace:216,2,,1,100
NSR:Quay:352,,Melhus skysstasjon,,63.284462,10.276983,,,0,NSR:StopPlace:217,2,,,700
NSR:Quay:110,,Hallingskeid stasjon,,60.668034,7.252401,,,0,NSR:StopPlace:71,2,,2,100
NSR:Quay:111,,Hallingskeid stasjon,,60.66798,7.252357,,,0,NSR:StopPlace:71,2,,1,100
NSR:Quay:595,,Urdland stasjon,,60.679413,6.592867,,,0,NSR:StopPlace:354,2,,2,100
NSR:Quay:71415,,Trondheim S,,63.43615,10.401431,,,0,NSR:StopPlace:41742,2,,6,700
NSR:Quay:596,,Urdland stasjon,,60.679478,6.592863,,,0,NSR:StopPlace:354,2,,1,100
NSR:Quay:112,,Rygge,,59.378113,10.748204,,,0,NSR:StopPlace:72,2,,,700
NSR:Quay:355,,Hamar stasjon,,60.791325,11.078576,,,0,NSR:StopPlace:219,2,,1,100
NSR:Quay:71416,,Trondheim S,,63.435932,10.401385,,,0,NSR:StopPlace:41742,2,,13,700
NSR:Quay:113,,Ed station,,58.913525,11.9331,,,0,NSR:StopPlace:73,2,,1,100
NSR:Quay:356,,Hamar stasjon,,60.79108,11.078517,,,0,NSR:StopPlace:219,2,,4,100
NSR:Quay:71417,,Trondheim S,,63.43615,10.400781,,,0,NSR:StopPlace:41742,2,,1,700
NSR:Quay:114,,Røra stasjon,,63.85674,11.401861,,,0,NSR:StopPlace:74,2,,2,100
NSR:Quay:598,,Urdland,,60.67967,6.593462,,,0,NSR:StopPlace:356,2,,,700
NSR:Quay:357,,Hamar stasjon,,60.791233,11.078553,,,0,NSR:StopPlace:219,2,,2,100
NSR:Quay:71418,,Trondheim S,,63.436028,10.400624,,,0,NSR:StopPlace:41742,2,,10,700
NSR:Quay:115,,Røra stasjon,,63.85673,11.401765,,,0,NSR:StopPlace:74,2,,1,100
NSR:Quay:599,,Jørstad stasjon,,64.20661,12.241623,,,0,NSR:StopPlace:357,2,,1,100
NSR:Quay:589,,Upsete stasjon,,60.725304,7.011568,,,0,NSR:StopPlace:349,2,,1,100
NSR:Quay:349,,Melhus skysstasjon,,63.28437,10.276677,,,0,NSR:StopPlace:214,2,,1,100
NSR:Quay:108,,Rygge stasjon,,59.377857,10.747827,,,0,NSR:StopPlace:70,2,,1,100
NSR:Quay:109,,Rygge stasjon,,59.37793,10.747967,,,0,NSR:StopPlace:70,2,,2,100
NSR:Quay:4015,,Fredrikstad stasjon,,59.209084,10.949485,,,0,NSR:StopPlace:2309,2,,,700
NSR:Quay:10084,,Strømmen stasjon,,59.948795,11.001622,,,0,NSR:StopPlace:5511,2,,4,700
NSR:Quay:10083,,Strømmen stasjon,,59.94887,11.001855,,,0,NSR:StopPlace:5511,2,,2,700
NSR:Quay:10081,,Strømmen stasjon,,59.94883,11.001737,,,0,NSR:StopPlace:5511,2,,3,700
NSR:Quay:98869,,Grong stasjon,,64.45683,12.337087,,,0,NSR:StopPlace:44550,2,,,700
NSR:Quay:98864,,Verdal stasjon,,63.79136,11.484763,,,0,NSR:StopPlace:45530,2,,,700
NSR:Quay:122032,,Oslo S Trelastgata,,59.908695,10.759459,,,0,NSR:StopPlace:2,2,,42,700
NSR:Quay:122033,,Oslo S Trelastgata,,59.908653,10.759818,,,0,NSR:StopPlace:2,2,,43,700
NSR:Quay:122030,,Oslo S Trelastgata,,59.90882,10.758555,,,0,NSR:StopPlace:2,2,,40,700
NSR:Quay:122031,,Oslo S Trelastgata,,59.90873,10.759183,,,0,NSR:StopPlace:2,2,,41,700
NSR:Quay:85549,,Rognan stasjon,,67.09362,15.398854,,,0,NSR:StopPlace:50104,2,,,700
NSR:Quay:8044,,Leirsund stasjon,,59.99978,11.086917,,,0,NSR:StopPlace:4465,2,,,700
NSR:Quay:122021,,Oslo S Trelastgata,,59.90949,10.755532,,,0,NSR:StopPlace:2,2,,31,700
NSR:Quay:3823,,Slitu,,59.58005,11.262367,,,0,NSR:StopPlace:2211,2,,,700
NSR:Quay:102434,,Öxnered station,,58.35928,12.274022,,,0,NSR:StopPlace:496,2,,2,100
NSR:Quay:122022,,Oslo S Trelastgata,,59.909405,10.755875,,,0,NSR:StopPlace:2,2,,32,700
NSR:Quay:102435,,Öxnered station,,58.359116,12.274923,,,0,NSR:StopPlace:496,2,,3,100
NSR:Quay:3822,,Slitu,,59.580204,11.262439,,,0,NSR:StopPlace:2211,2,,,700
NSR:Quay:122025,,Oslo S Trelastgata,,59.909164,10.7569,,,0,NSR:StopPlace:2,2,,35,700
NSR:Quay:122026,,Oslo S Trelastgata,,59.909096,10.757246,,,0,NSR:StopPlace:2,2,,36,700
NSR:Quay:122023,,Oslo S Trelastgata,,59.909325,10.756205,,,0,NSR:StopPlace:2,2,,33,700
NSR:Quay:122024,,Oslo S Trelastgata,,59.909225,10.75664,,,0,NSR:StopPlace:2,2,,34,700
NSR:Quay:122029,,Oslo S Trelastgata,,59.908886,10.758193,,,0,NSR:StopPlace:2,2,,39,700
NSR:Quay:122027,,Oslo S Trelastgata,,59.90902,10.757576,,,0,NSR:StopPlace:2,2,,37,700
NSR:Quay:122028,,Oslo S Trelastgata,,59.90895,10.757847,,,0,NSR:StopPlace:2,2,,38,700
NSR:Quay:102438,,Trollhättan Centralstation,,58.287624,12.299143,,,0,NSR:StopPlace:681,2,,3,100
NSR:Quay:803,,Blaker stasjon,,60.00477,11.301096,,,0,NSR:StopPlace:487,2,,1,100
NSR:Quay:804,,Blaker stasjon,,60.004826,11.300975,,,0,NSR:StopPlace:487,2,,2,100
NSR:Quay:102436,,Öxnered station,,58.359283,12.275443,,,0,NSR:StopPlace:496,2,,4,100
NSR:Quay:1884,,Råde stasjon,,59.34733,10.867469,,,0,NSR:StopPlace:1153,2,,,700
NSR:Quay:805,,Lesjaverk stasjon,,62.19238,8.538134,,,0,NSR:StopPlace:488,2,,1,100
NSR:Quay:102437,,Trollhättan Centralstation,,58.28756,12.298999,,,0,NSR:StopPlace:681,2,,2,100
NSR:Quay:806,,Östersund C,,63.171135,14.636761,,,0,NSR:StopPlace:489,2,,,700
NSR:Quay:98860,,Grong stasjon,,64.45744,12.33719,,,0,NSR:StopPlace:44550,2,,,700
NSR:Quay:807,,Blaker,,60.005123,11.30184,,,0,NSR:StopPlace:491,2,,,700
NSR:Quay:28539,,Mjøndalen stasjon,,59.75065,10.011621,,,0,NSR:StopPlace:16396,2,,A,700
NSR:Quay:75768,,Hegra stasjon,,63.460884,11.103361,,,0,NSR:StopPlace:44117,2,,,700
NSR:Quay:99735,,Levanger stasjon,,63.745094,11.300597,,,0,NSR:StopPlace:45170,2,,,700
NSR:Quay:100222,,Moelv stasjon,,60.930225,10.69886,,,0,NSR:StopPlace:9835,2,,,700
NSR:Quay:100221,,Moelv stasjon,,60.93008,10.698943,,,0,NSR:StopPlace:9835,2,,,700
NSR:Quay:100223,,Moelv stasjon,,60.93037,10.698782,,,0,NSR:StopPlace:9835,2,,,700
NSR:Quay:100220,,Moelv stasjon,,60.930336,10.698608,,,0,NSR:StopPlace:9835,2,,,700
NSR:Quay:100229,,Trondheim lufthavn stasjon,,63.453903,10.913933,,,0,NSR:StopPlace:456,2,,2,100
NSR:Quay:810,,Blommenholm stasjon,,59.897305,10.555088,,,0,NSR:StopPlace:493,2,,1,100
NSR:Quay:811,,Blommenholm stasjon,,59.897232,10.555124,,,0,NSR:StopPlace:493,2,,2,100
NSR:Quay:86659,,Mo stasjon,,66.3097,14.134421,,,0,NSR:StopPlace:50869,2,,,700
NSR:Quay:102647,,Göteborg Centralstation,se avgangstavle for sporinformasjon,57.709034,11.973598,,,0,NSR:StopPlace:374,2,,,100
NSR:Quay:814,,Öxnered station,,58.3593,12.273847,,,0,NSR:StopPlace:496,2,,1,100
NSR:Quay:76862,,Grøndalselv,,64.69184,12.751681,,,0,NSR:StopPlace:44664,2,,,700
NSR:Quay:818,,Lunde stasjon,,59.299007,9.100824,,,0,NSR:StopPlace:501,2,,2,100
NSR:Quay:819,,Bellingmo stasjon,,62.030094,10.78518,,,0,NSR:StopPlace:500,2,,1,100
NSR:Quay:75770,,Hegra stasjon,,63.46078,11.104463,,,0,NSR:StopPlace:44117,2,,,700
NSR:Quay:8260,,Vestby stasjon,,59.604134,10.749612,,,0,NSR:StopPlace:4569,2,,,700
NSR:Quay:99726,,Trondheim S,,63.436043,10.402351,,,0,NSR:StopPlace:41742,2,,12,700
NSR:Quay:76624,,Grong stasjon,,64.45796,12.337261,,,0,NSR:StopPlace:44550,2,,,700
NSR:Quay:76623,,Grong stasjon,,64.45685,12.337092,,,0,NSR:StopPlace:44550,2,,,700
NSR:Quay:76865,,Gudå,,63.44402,11.620224,,,0,NSR:StopPlace:44665,2,,,700
NSR:Quay:73357,,Leistadkrysset,,63.4228,10.629564,,,0,NSR:StopPlace:42795,2,,,700
NSR:Quay:76864,,Gudå,,63.444096,11.620234,,,0,NSR:StopPlace:44665,2,,,700
NSR:Quay:73356,,Leistadkrysset,,63.42225,10.630415,,,0,NSR:StopPlace:42795,2,,,700
NSR:Quay:76621,,Grong stasjon,,64.45683,12.337087,,,0,NSR:StopPlace:44550,2,,,700
NSR:Quay:76863,,Grøndalselv,,64.69171,12.751761,,,0,NSR:StopPlace:44664,2,,,700
NSR:Quay:16788,,Moelv stasjon,,60.93012,10.698605,,,0,NSR:StopPlace:9835,2,,,700
NSR:Quay:101560,,Mjøndalen stasjon,,59.750546,10.012482,,,0,NSR:StopPlace:16396,2,,C,700
NSR:Quay:830,,Larvik stasjon,,59.05011,10.03081,,,0,NSR:StopPlace:506,2,,2,100
NSR:Quay:820,,Lunde stasjon,,59.29899,9.100679,,,0,NSR:StopPlace:501,2,,,100
NSR:Quay:821,,Lunde stasjon,,59.299023,9.100928,,,0,NSR:StopPlace:501,2,,1,100
NSR:Quay:9104,,Kløfta stasjon,,60.075016,11.138804,,,0,NSR:StopPlace:5001,2,,2,700
NSR:Quay:8257,,Vestby stasjon,,59.604366,10.750093,,,0,NSR:StopPlace:4569,2,,,700
NSR:Quay:9105,,Kløfta stasjon,,60.07483,11.138804,,,0,NSR:StopPlace:5001,2,,4,700
NSR:Quay:8258,,Vestby stasjon,,59.604023,10.749382,,,0,NSR:StopPlace:4569,2,,,700
NSR:Quay:9106,,Kløfta stasjon,,60.074924,11.138806,,,0,NSR:StopPlace:5001,2,,3,700
NSR:Quay:8259,,Vestby stasjon,,59.60425,10.749846,,,0,NSR:StopPlace:4569,2,,,700
NSR:Quay:9107,,Kløfta stasjon,,60.074646,11.138793,,,0,NSR:StopPlace:5001,2,,6,700
NSR:Quay:827,,Larvik stasjon,,59.050182,10.03085,,,0,NSR:StopPlace:506,2,,1,100
NSR:Quay:828,,Bodø stasjon,,67.28646,14.392011,,,0,NSR:StopPlace:507,2,,1,100
NSR:Quay:829,,Larvik stasjon,,59.050053,10.030767,,,0,NSR:StopPlace:506,2,,3,100
NSR:Quay:9102,,Kløfta stasjon,,60.075096,11.138809,,,0,NSR:StopPlace:5001,2,,1,700
NSR:Quay:9103,,Kløfta stasjon,,60.07475,11.138796,,,0,NSR:StopPlace:5001,2,,5,700
NSR:Quay:72677,,Marienborg stasjon,,63.418056,10.382563,,,0,NSR:StopPlace:42437,2,,,700
NSR:Quay:72678,,Marienborg stasjon,,63.417816,10.382431,,,0,NSR:StopPlace:42437,2,,,700
NSR:Quay:100200,,Kristinehamn Resecentrum,,59.316364,14.107816,,,0,NSR:StopPlace:58188,2,,D,700
NSR:Quay:100202,,Kristinehamn Resecentrum,,59.316235,14.108049,,,0,NSR:StopPlace:58188,2,,F,700
NSR:Quay:100201,,Kristinehamn Resecentrum,,59.3163,14.107945,,,0,NSR:StopPlace:58188,2,,E,700
NSR:Quay:840,,Larvik,,59.050453,10.030295,,,0,NSR:StopPlace:509,2,,,700
NSR:Quay:831,,Bodø stasjon,,67.28652,14.391941,,,0,NSR:StopPlace:507,2,,2,100
NSR:Quay:833,,Bodø stasjon,,67.286934,14.394032,,,0,NSR:StopPlace:507,2,,,100
NSR:Quay:100209,,Trondheim lufthavn,,63.45411,10.915585,,,0,NSR:StopPlace:44286,2,,A1,700
NSR:Quay:834,,Bodø stasjon,,67.28698,14.393959,,,0,NSR:StopPlace:507,2,,,100
NSR:Quay:835,,Ål stasjon,,60.62625,8.562145,,,0,NSR:StopPlace:508,2,,1,100
NSR:Quay:100204,,Hallsberg resecentrum,,59.06641,15.110157,,,0,NSR:StopPlace:188,2,,B,700
NSR:Quay:836,,Ål stasjon,,60.626442,8.561927,,,0,NSR:StopPlace:508,2,,9,100
NSR:Quay:100203,,Kristinehamn Resecentrum,,59.316174,14.108143,,,0,NSR:StopPlace:58188,2,,G,700
NSR:Quay:100206,,Hallsberg resecentrum,,59.06635,15.109844,,,0,NSR:StopPlace:188,2,,D,700
NSR:Quay:100205,,Hallsberg resecentrum,,59.06638,15.110002,,,0,NSR:StopPlace:188,2,,C,700
NSR:Quay:839,,Bodø,,67.28626,14.390529,,,0,NSR:StopPlace:510,2,,,700
NSR:Quay:100211,,Trondheim lufthavn,,63.45411,10.915934,,,0,NSR:StopPlace:44286,2,,A3,700
NSR:Quay:100210,,Trondheim lufthavn,,63.45411,10.915759,,,0,NSR:StopPlace:44286,2,,A2,700
NSR:Quay:100213,,Trondheim lufthavn,,63.454105,10.916795,,,0,NSR:StopPlace:44286,2,,A6,700
NSR:Quay:1844,,Spydeberg stasjon,,59.62106,11.080686,,,0,NSR:StopPlace:1132,2,,,700
NSR:Quay:100212,,Trondheim lufthavn,,63.454105,10.916508,,,0,NSR:StopPlace:44286,2,,A5,700
NSR:Quay:23092,,Ringebu skysstasjon,,61.52943,10.138754,,,0,NSR:StopPlace:13425,2,,,700
NSR:Quay:850,,Bolstadøyri stasjon,,60.637848,5.957782,,,0,NSR:StopPlace:518,2,,2,100
NSR:Quay:1845,,Spydeberg stasjon,,59.62054,11.080342,,,0,NSR:StopPlace:1132,2,,,700
NSR:Quay:851,,Kongsberg stasjon,,59.672085,9.650923,,,0,NSR:StopPlace:519,2,,1,100
NSR:Quay:610,,Vaksdal stasjon,,60.478703,5.735223,,,0,NSR:StopPlace:364,2,,1,100
NSR:Quay:852,,Kongsberg stasjon,,59.672195,9.651138,,,0,NSR:StopPlace:519,2,,3,100
NSR:Quay:16569,,Skarnes stasjon,,60.254105,11.681054,,,0,NSR:StopPlace:9673,2,,,700
NSR:Quay:600,,Grorud stasjon,,59.949802,10.88755,,,0,NSR:StopPlace:359,2,,2,100
NSR:Quay:842,,Bodung stasjon,,60.085114,11.419889,,,0,NSR:StopPlace:512,2,,1,100
NSR:Quay:100219,,Moelv stasjon,,60.9302,10.698667,,,0,NSR:StopPlace:9835,2,,,700
NSR:Quay:601,,Ustaoset stasjon,,60.496525,8.045038,,,0,NSR:StopPlace:358,2,,1,100
NSR:Quay:843,,Kambo stasjon,,59.47763,10.692382,,,0,NSR:StopPlace:513,2,,2,100
NSR:Quay:844,,Ålen stasjon,,62.846523,11.314981,,,0,NSR:StopPlace:514,2,,1,100
NSR:Quay:602,,Grorud stasjon,,59.94982,10.887484,,,0,NSR:StopPlace:359,2,,3,100
NSR:Quay:603,,Ustaoset stasjon,,60.496483,8.044905,,,0,NSR:StopPlace:358,2,,2,100
NSR:Quay:845,,Kambo stasjon,,59.477665,10.692232,,,0,NSR:StopPlace:513,2,,1,100
NSR:Quay:604,,Grorud stasjon,,59.949753,10.887694,,,0,NSR:StopPlace:359,2,,1,100
NSR:Quay:100214,,Trondheim lufthavn,Avgangshallen øvre plan,63.45405,10.917825,,,0,NSR:StopPlace:44286,2,,,700
NSR:Quay:605,,Jørstad,,64.20713,12.246194,,,0,NSR:StopPlace:360,2,,,700
NSR:Quay:606,,Ustaoset,,60.49698,8.044598,,,0,NSR:StopPlace:361,2,,,700
NSR:Quay:849,,Bolstadøyri stasjon,,60.637894,5.957766,,,0,NSR:StopPlace:518,2,,1,100
NSR:Quay:607,,Jåttåvågen stasjon,,58.9139,5.729211,,,0,NSR:StopPlace:362,2,,1,100
NSR:Quay:608,,Grorud,,59.9499,10.886695,,,0,NSR:StopPlace:363,2,,,700
NSR:Quay:609,,Jåttåvågen stasjon,,58.91384,5.729047,,,0,NSR:StopPlace:362,2,,2,100
NSR:Quay:7380,,Sørumsand stasjon,,59.986076,11.241846,,,0,NSR:StopPlace:4091,2,,2,700
NSR:Quay:110496,,Charlottenberg station,,59.88397,12.29854,,,0,NSR:StopPlace:8316,2,,,700
NSR:Quay:77903,,Levanger stasjon,,63.745087,11.300888,,,0,NSR:StopPlace:45170,2,,,700
NSR:Quay:77902,,Levanger stasjon,,63.745125,11.300815,,,0,NSR:StopPlace:45170,2,,,700
NSR:Quay:98606,,Melhus skysstasjon,,63.284847,10.27791,,,0,NSR:StopPlace:217,2,,1,700
NSR:Quay:99932,,Fredrikstad stasjon,,59.208607,10.95011,,,0,NSR:StopPlace:2309,2,,,700
NSR:Quay:101994,,Oteråga,,67.29916,14.870811,,,0,NSR:StopPlace:59912,2,,,700
NSR:Quay:101995,,Oteråga,,67.29892,14.866857,,,0,NSR:StopPlace:59912,2,,,700
NSR:Quay:861,,Åndalsnes stasjon,,62.56726,7.689748,,,0,NSR:StopPlace:520,2,,1,100
NSR:Quay:98609,,Lundamo,,63.151543,10.28035,,,0,NSR:StopPlace:464,2,,1,700
NSR:Quay:862,,Kongsberg,,59.67377,9.646531,,,0,NSR:StopPlace:522,2,,,700
NSR:Quay:621,,Kvål,,63.23345,10.279579,,,0,NSR:StopPlace:373,2,,,700
NSR:Quay:863,,Bondivann stasjon,,59.820312,10.43306,,,0,NSR:StopPlace:523,2,,1,100
NSR:Quay:611,,Vaksdal stasjon,,60.480038,5.73412,,,0,NSR:StopPlace:364,2,,2,100
NSR:Quay:102607,,Kongsberg,,59.67253,9.651398,,,0,NSR:StopPlace:522,2,,,700
NSR:Quay:853,,Kongsberg stasjon,,59.67216,9.651039,,,0,NSR:StopPlace:519,2,,2,100
NSR:Quay:855,,Bolstadøyri,,60.637974,5.957422,,,0,NSR:StopPlace:521,2,,,700
NSR:Quay:856,,Åndalsnes stasjon,,62.567204,7.691492,,,0,NSR:StopPlace:520,2,,2,100
NSR:Quay:615,,Jåttåvågen,,58.913857,5.727833,,,0,NSR:StopPlace:367,2,,,700
NSR:Quay:7377,,Sørumsand stasjon,,59.98605,11.24153,,,0,NSR:StopPlace:4091,2,,,700
NSR:Quay:28540,,Mjøndalen stasjon,,59.750603,10.012001,,,0,NSR:StopPlace:16396,2,,B,700
NSR:Quay:616,,Vakås stasjon,,59.84973,10.467009,,,0,NSR:StopPlace:368,2,,1,100
NSR:Quay:7379,,Sørumsand stasjon,,59.985996,11.241543,,,0,NSR:StopPlace:4091,2,,,700
NSR:Quay:617,,Vakås stasjon,,59.849693,10.467135,,,0,NSR:StopPlace:368,2,,2,100
NSR:Quay:618,,Kvål stasjon,,63.233383,10.280054,,,0,NSR:StopPlace:369,2,,1,100
NSR:Quay:28541,,Mjøndalen stasjon,,59.75048,10.012134,,,0,NSR:StopPlace:16396,2,,D,700
NSR:Quay:7375,,Sørumsand stasjon,,59.986023,11.241865,,,0,NSR:StopPlace:4091,2,,1,700
NSR:Quay:99922,,Trondheim S,,63.436153,10.401309,,,0,NSR:StopPlace:41742,2,,5,700
NSR:Quay:870,,Bryn stasjon,,59.908398,10.819564,,,0,NSR:StopPlace:529,2,,2,100
NSR:Quay:622,,Valnesfjord stasjon,,67.29948,15.192133,,,0,NSR:StopPlace:372,2,,1,100
NSR:Quay:623,,Göteborg Centralstation,,57.70944,11.974328,,,0,NSR:StopPlace:374,2,,9,100
NSR:Quay:624,,Göteborg Centralstation,,57.709076,11.975575,,,0,NSR:StopPlace:374,2,,1,100
NSR:Quay:6277,,Solbråtan stasjon,,59.80129,10.804765,,,0,NSR:StopPlace:3533,2,,,700
NSR:Quay:625,,Göteborg Centralstation,,57.709644,11.974186,,,0,NSR:StopPlace:374,2,,12,100
NSR:Quay:868,,Kil,,59.504513,13.316232,,,0,NSR:StopPlace:528,2,,,700
NSR:Quay:626,,Göteborg Centralstation,,57.709747,11.974121,,,0,NSR:StopPlace:374,2,,13,100
NSR:Quay:869,,Bryn stasjon,,59.90829,10.818738,,,0,NSR:StopPlace:529,2,,1,100
NSR:Quay:627,,Langhus stasjon,,59.749695,10.83672,,,0,NSR:StopPlace:375,2,,2,100
NSR:Quay:628,,Langhus stasjon,,59.749714,10.836538,,,0,NSR:StopPlace:375,2,,1,100
NSR:Quay:6276,,Solbråtan stasjon,,59.80044,10.804821,,,0,NSR:StopPlace:3533,2,,,700
NSR:Quay:78617,,Verdal stasjon,,63.791348,11.484699,,,0,NSR:StopPlace:45530,2,,,700
NSR:Quay:78615,,Verdal stasjon,,63.791336,11.484626,,,0,NSR:StopPlace:45530,2,,,700
NSR:Quay:1017,,Dal stasjon,,60.248936,11.202693,,,0,NSR:StopPlace:621,2,,1,100
NSR:Quay:1016,,Dal stasjon,,60.24901,11.202546,,,0,NSR:StopPlace:621,2,,3,100
NSR:Quay:86241,,Strømsnes,,67.29926,15.185447,,,0,NSR:StopPlace:50580,2,,,700
NSR:Quay:86240,,Strømsnes,,67.29983,15.185268,,,0,NSR:StopPlace:50580,2,,,700
NSR:Quay:102827,,Ringebu skysstasjon,,61.529575,10.13835,,,0,NSR:StopPlace:13425,2,,,700
NSR:Quay:1011,,Marienborg stasjon,,63.41867,10.382735,,,0,NSR:StopPlace:618,2,,7,100
NSR:Quay:1012,,Marienborg stasjon,,63.418655,10.382633,,,0,NSR:StopPlace:618,2,,9,100
NSR:Quay:1015,,Dal stasjon,,60.24898,11.202597,,,0,NSR:StopPlace:621,2,,2,100
NSR:Quay:1014,,Kråkstad,,59.68337,10.890887,,,0,NSR:StopPlace:620,2,,,700
NSR:Quay:80936,,Storlien station,,63.316273,12.100542,,,0,NSR:StopPlace:46655,2,,,700
NSR:Quay:4516,,Kambo stasjon,,59.477573,10.693442,,,0,NSR:StopPlace:2591,2,,,700
NSR:Quay:4517,,Kambo stasjon,,59.477463,10.693941,,,0,NSR:StopPlace:2591,2,,,700
NSR:Quay:1008,,Kråkstad stasjon,,59.683556,10.890791,,,0,NSR:StopPlace:617,2,,1,100
NSR:Quay:1007,,Svingen,,59.92873,11.176969,,,0,NSR:StopPlace:616,2,,,700
NSR:Quay:1009,,Kråkstad stasjon,,59.683594,10.890919,,,0,NSR:StopPlace:617,2,,2,100
NSR:Quay:56814,,Stanghelle sør,,60.551598,5.739689,,,0,NSR:StopPlace:32891,2,,,700
NSR:Quay:56815,,Stanghelle sør,,60.551174,5.73927,,,0,NSR:StopPlace:32891,2,,,700
NSR:Quay:1000,,Kristiansand stasjon,,58.145786,7.987638,,,0,NSR:StopPlace:609,2,,4,100
NSR:Quay:1002,,Svingen stasjon,,59.92907,11.177606,,,0,NSR:StopPlace:613,2,,1,100
NSR:Quay:99555,,Grong stasjon,,64.45796,12.337261,,,0,NSR:StopPlace:44550,2,,,700
NSR:Quay:81807,,Majavatn,,65.164536,13.368198,,,0,NSR:StopPlace:47275,2,,,700
NSR:Quay:5835,,Gullhella sykehjem,,59.81468,10.446438,,,0,NSR:StopPlace:3300,2,,,700
NSR:Quay:5834,,Gullhella sykehjem,,59.81446,10.445838,,,0,NSR:StopPlace:3300,2,,,700
NSR:Quay:3899,,Mysen stasjon,,59.55393,11.324461,,,0,NSR:StopPlace:2251,2,,,700
NSR:Quay:8099,,Lillestrøm bussterminal,,59.953964,11.042944,,,0,NSR:StopPlace:4489,2,,4,700
NSR:Quay:99576,,Lysaker stasjon,,59.91312,10.63836,,,0,NSR:StopPlace:4377,2,,F,700
NSR:Quay:8095,,Lillestrøm bussterminal,,59.95398,11.042842,,,0,NSR:StopPlace:4489,2,,5,700
NSR:Quay:8097,,Lillestrøm bussterminal,,59.954025,11.042528,,,0,NSR:StopPlace:4489,2,,8,700
NSR:Quay:8091,,Lillestrøm bussterminal,,59.95395,11.043046,,,0,NSR:StopPlace:4489,2,,3,700
NSR:Quay:8092,,Lillestrøm bussterminal,,59.954075,11.042217,,,0,NSR:StopPlace:4489,2,,11,700
NSR:Quay:8093,,Lillestrøm bussterminal,,59.95411,11.044709,,,0,NSR:StopPlace:4489,2,,18,700
NSR:Quay:8094,,Lillestrøm bussterminal,,59.954155,11.041697,,,0,NSR:StopPlace:4489,2,,16,700
NSR:Quay:8090,,Lillestrøm bussterminal,,59.953938,11.043143,,,0,NSR:StopPlace:4489,2,,2,700
NSR:Quay:5817,,Bondi skole,,59.822918,10.435792,,,0,NSR:StopPlace:3291,2,,,700
NSR:Quay:5816,,Bondi skole,,59.823193,10.435895,,,0,NSR:StopPlace:3291,2,,,700
NSR:Quay:11952,,Årnes stasjon,,60.123184,11.465017,,,0,NSR:StopPlace:6497,2,,,700
NSR:Quay:11953,,Årnes stasjon,,60.12321,11.46485,,,0,NSR:StopPlace:6497,2,,,700
NSR:Quay:99505,,Trondheim lufthavn,,63.45411,10.916221,,,0,NSR:StopPlace:44286,2,,A4,700
NSR:Quay:99502,,Trondheim lufthavn,,63.4541,10.917951,,,0,NSR:StopPlace:44286,2,,A7,700
NSR:Quay:77734,,Skogn stasjon,,63.705006,11.194055,,,0,NSR:StopPlace:45088,2,,,700
NSR:Quay:11946,,Årnes stasjon,,60.12335,11.465263,,,0,NSR:StopPlace:6497,2,,1,700
NSR:Quay:11947,,Årnes stasjon,,60.12315,11.465167,,,0,NSR:StopPlace:6497,2,,,700
NSR:Quay:11948,,Årnes stasjon,,60.123398,11.46496,,,0,NSR:StopPlace:6497,2,,3,700
NSR:Quay:11949,,Årnes stasjon,,60.123375,11.465102,,,0,NSR:StopPlace:6497,2,,2,700
NSR:Quay:56853,,Dale stasjon,,60.586395,5.815459,,,0,NSR:StopPlace:32913,2,,,700
NSR:Quay:481,,Nisterud stasjon,,59.30047,9.484872,,,0,NSR:StopPlace:291,2,,1,100
NSR:Quay:241,,Skøyen,Alternativ transport (NSB),59.92191,10.676976,,,0,NSR:StopPlace:153,2,,,700
NSR:Quay:242,,Hellvik,,58.48606,5.897043,,,0,NSR:StopPlace:154,2,,,700
NSR:Quay:243,,Evanger,,60.64713,6.109632,,,0,NSR:StopPlace:156,2,,,700
NSR:Quay:56789,,Vaksdal senter,,60.47672,5.742274,,,0,NSR:StopPlace:32878,2,,,700
NSR:Quay:485,,Hvalstad stasjon,,59.8589,10.461899,,,0,NSR:StopPlace:295,2,,2,100
NSR:Quay:244,,Selsbakk stasjon,,63.389484,10.373054,,,0,NSR:StopPlace:155,2,,,100
NSR:Quay:486,,Gjerstad stasjon,,58.870026,9.023505,,,0,NSR:StopPlace:296,2,,2,100
NSR:Quay:245,,Selsbakk stasjon,,63.38944,10.37315,,,0,NSR:StopPlace:155,2,,1,100
NSR:Quay:487,,Hvalstad stasjon,,59.858875,10.461755,,,0,NSR:StopPlace:295,2,,1,100
NSR:Quay:246,,Lysaker stasjon,,59.913315,10.637235,,,0,NSR:StopPlace:157,2,,4,100
NSR:Quay:488,,Gjerstad stasjon,,58.869965,9.023484,,,0,NSR:StopPlace:296,2,,1,100
NSR:Quay:87055,,Bjerka stasjon,,66.149704,13.830988,,,0,NSR:StopPlace:51129,2,,,700
NSR:Quay:247,,Lysaker stasjon,,59.913403,10.637244,,,0,NSR:StopPlace:157,2,,3,100
NSR:Quay:489,,Neslandsvatn stasjon,,58.971252,9.156112,,,0,NSR:StopPlace:297,2,,1,100
NSR:Quay:237,,Skøyen stasjon,,59.922405,10.678784,,,0,NSR:StopPlace:152,2,,2,100
NSR:Quay:479,,Gullhella stasjon,,59.80694,10.436274,,,0,NSR:StopPlace:289,2,,1,100
NSR:Quay:66,,Hanaborg stasjon,,59.939037,10.965499,,,0,NSR:StopPlace:41,2,,2,100
NSR:Quay:1096,,Tolga stasjon,,62.408707,10.998126,,,0,NSR:StopPlace:663,2,,1,100
NSR:Quay:78580,,Bergsgrav,,63.77206,11.470773,,,0,NSR:StopPlace:45514,2,,,700
NSR:Quay:67,,Reimegrend stasjon,,60.678165,6.730939,,,0,NSR:StopPlace:42,2,,1,100
NSR:Quay:238,,Skøyen stasjon,,59.922325,10.678694,,,0,NSR:StopPlace:152,2,,3,100
NSR:Quay:68,,Reimegrend stasjon,,60.678093,6.730923,,,0,NSR:StopPlace:42,2,,2,100
NSR:Quay:239,,Skøyen stasjon,,59.922485,10.67888,,,0,NSR:StopPlace:152,2,,1,100
NSR:Quay:69,,Reimegrend,,60.678234,6.731537,,,0,NSR:StopPlace:43,2,,,700
NSR:Quay:62,,Ronglan stasjon,,63.66654,11.113105,,,0,NSR:StopPlace:38,2,,,100
NSR:Quay:53045,,Bergen busstasjon,,60.387596,5.334541,,,0,NSR:StopPlace:30810,2,,N,700
NSR:Quay:63,,Ronglan,,63.666348,11.113132,,,0,NSR:StopPlace:40,2,,,700
NSR:Quay:65,,Hanaborg stasjon,,59.93895,10.965462,,,0,NSR:StopPlace:41,2,,1,100
NSR:Quay:32583,,Stokke stasjon,,59.22124,10.300603,,,0,NSR:StopPlace:18613,2,,,700
NSR:Quay:61,,Ronglan stasjon,,63.666504,11.113252,,,0,NSR:StopPlace:38,2,,1,100
NSR:Quay:1093,,Sande stasjon,,59.585262,10.204726,,,0,NSR:StopPlace:662,2,,1,100
NSR:Quay:1095,,Tolga stasjon,,62.408745,10.998051,,,0,NSR:StopPlace:663,2,,2,100
NSR:Quay:77010,,Hegramo,,63.46384,11.115106,,,0,NSR:StopPlace:44738,2,,,700
NSR:Quay:1094,,Sande stasjon,,59.585278,10.204806,,,0,NSR:StopPlace:662,2,,2,100
NSR:Quay:490,,Neslandsvatn stasjon,,58.971237,9.156032,,,0,NSR:StopPlace:297,2,,2,100
NSR:Quay:250,,Lysaker stasjon,,59.913578,10.637259,,,0,NSR:StopPlace:157,2,,1,100
NSR:Quay:53027,,Bergen busstasjon,,60.38828,5.333346,,,0,NSR:StopPlace:30810,2,,H,700
NSR:Quay:251,,Hønefoss stasjon,,60.169376,10.24816,,,0,NSR:StopPlace:158,2,,,100
NSR:Quay:53026,,Bergen busstasjon,,60.387676,5.334859,,,0,NSR:StopPlace:30810,2,,L,700
NSR:Quay:252,,Hønefoss stasjon,,60.169407,10.248157,,,0,NSR:StopPlace:158,2,,,100
NSR:Quay:53268,,Bulken E16,,60.631374,6.278035,,,0,NSR:StopPlace:30940,2,,,700
NSR:Quay:53029,,Bergen busstasjon,,60.388554,5.334427,,,0,NSR:StopPlace:30810,2,,B,700
NSR:Quay:253,,Hønefoss stasjon,,60.169037,10.248874,,,0,NSR:StopPlace:158,2,,,100
NSR:Quay:495,,Høvik stasjon,,59.901176,10.582626,,,0,NSR:StopPlace:303,2,,1,100
NSR:Quay:53028,,Bergen busstasjon,,60.38879,5.332004,,,0,NSR:StopPlace:30810,2,,I,700
NSR:Quay:254,,Hønefoss stasjon,,60.168987,10.248871,,,0,NSR:StopPlace:158,2,,,100
NSR:Quay:496,,Høvik stasjon,,59.900967,10.582811,,,0,NSR:StopPlace:303,2,,2,100
NSR:Quay:255,,Hønefoss stasjon,,60.168926,10.248868,,,0,NSR:StopPlace:158,2,,,100
NSR:Quay:256,,Hønefoss stasjon,,60.169094,10.248871,,,0,NSR:StopPlace:158,2,,,100
NSR:Quay:498,,Høvik stasjon,,59.90112,10.582677,,,0,NSR:StopPlace:303,2,,,100
NSR:Quay:257,,Eidsvoll stasjon,,60.32991,11.247953,,,0,NSR:StopPlace:159,2,,1,100
NSR:Quay:258,,Hønefoss stasjon,,60.169155,10.248871,,,0,NSR:StopPlace:158,2,,5,100
NSR:Quay:32107,,Skoppum stasjon,,59.390285,10.410929,,,0,NSR:StopPlace:18353,2,,,700
NSR:Quay:53030,,Bergen busstasjon,,60.388588,5.333562,,,0,NSR:StopPlace:30810,2,,C,700
NSR:Quay:248,,Lysaker stasjon,,59.91351,10.637254,,,0,NSR:StopPlace:157,2,,2,100
NSR:Quay:10543,,Haugenstua stasjon,,59.95147,10.910823,,,0,NSR:StopPlace:5749,2,,,700
NSR:Quay:249,,Hønefoss stasjon,,60.16932,10.248184,,,0,NSR:StopPlace:158,2,,,100
NSR:Quay:53032,,Bergen busstasjon,,60.387962,5.334916,,,0,NSR:StopPlace:30810,2,,J,700
NSR:Quay:53031,,Bergen busstasjon,,60.388832,5.334079,,,0,NSR:StopPlace:30810,2,,A,700
NSR:Quay:58,,Rise stasjon,,58.46844,8.623712,,,0,NSR:StopPlace:35,2,,1,100
NSR:Quay:53034,,Bergen busstasjon,,60.38738,5.335183,,,0,NSR:StopPlace:30810,2,,M,700
NSR:Quay:51,,Gyland stasjon,,58.384205,6.837672,,,0,NSR:StopPlace:29,2,,2,100
NSR:Quay:53033,,Bergen busstasjon,,60.38742,5.335414,,,0,NSR:StopPlace:30810,2,,K,700
NSR:Quay:55698,,Trengereiddal ved kiosk,,60.424446,5.627224,,,0,NSR:StopPlace:32294,2,,,700
NSR:Quay:53,,Rognes stasjon,,63.004944,10.458432,,,0,NSR:StopPlace:31,2,,1,100
NSR:Quay:53035,,Bergen busstasjon,,60.38842,5.334103,,,0,NSR:StopPlace:30810,2,,D,700
NSR:Quay:1080,,Trondheim S,,63.43654,10.398684,,,0,NSR:StopPlace:659,2,,3,100
NSR:Quay:50,,Gyland stasjon,,58.384247,6.837656,,,0,NSR:StopPlace:29,2,,1,100
NSR:Quay:1082,,Trondheim S,,63.436684,10.398619,,,0,NSR:StopPlace:659,2,,5,100
NSR:Quay:1081,,Trondheim S,,63.436604,10.398655,,,0,NSR:StopPlace:659,2,,4,100
NSR:Quay:260,,Eidsvoll stasjon,,60.32992,11.248206,,,0,NSR:StopPlace:159,2,,3,100
NSR:Quay:261,,Eidsvoll stasjon,,60.329918,11.248125,,,0,NSR:StopPlace:159,2,,2,100
NSR:Quay:266,,Lønsdal stasjon,,66.742805,15.462747,,,0,NSR:StopPlace:161,2,,,100
NSR:Quay:48,,Rånåsfoss stasjon,,60.029457,11.328246,,,0,NSR:StopPlace:27,2,,1,100
NSR:Quay:267,,Lønsdal stasjon,,66.742775,15.462927,,,0,NSR:StopPlace:161,2,,1,100
NSR:Quay:269,,Lørenskog stasjon,,59.945164,10.944405,,,0,NSR:StopPlace:163,2,,2,100
NSR:Quay:259,,Hønefoss stasjon,,60.16934,10.248855,,,0,NSR:StopPlace:158,2,,1,100
NSR:Quay:44,,Dunderland stasjon,,66.44596,14.838179,,,0,NSR:StopPlace:25,2,,,100
NSR:Quay:1075,,Slitu,,59.566807,11.261373,,,0,NSR:StopPlace:657,2,,,700
NSR:Quay:45,,Dunderland stasjon,,66.44603,14.837966,,,0,NSR:StopPlace:25,2,,1,100
NSR:Quay:1077,,Snartemo stasjon,,58.33163,7.211519,,,0,NSR:StopPlace:658,2,,1,100
NSR:Quay:1076,,Snartemo stasjon,,58.331573,7.211536,,,0,NSR:StopPlace:658,2,,2,100
NSR:Quay:47,,Rånåsfoss stasjon,,60.029312,11.327744,,,0,NSR:StopPlace:27,2,,2,100
NSR:Quay:1079,,Trondheim S,,63.43646,10.398719,,,0,NSR:StopPlace:659,2,,2,100
NSR:Quay:53023,,Bergen busstasjon,,60.388134,5.333971,,,0,NSR:StopPlace:30810,2,,E,700
NSR:Quay:1078,,Trondheim S,,63.436386,10.398751,,,0,NSR:StopPlace:659,2,,1,100
NSR:Quay:41,,Rena stasjon,,61.134857,11.36971,,,0,NSR:StopPlace:23,2,,1,100
NSR:Quay:53022,,Bergen busstasjon,,60.3873,5.334883,,,0,NSR:StopPlace:30810,2,,O,700
NSR:Quay:42,,Rena stasjon,,61.134872,11.369541,,,0,NSR:StopPlace:23,2,,2,100
NSR:Quay:53025,,Bergen busstasjon,,60.388363,5.333538,,,0,NSR:StopPlace:30810,2,,F,700
NSR:Quay:53267,,Bulken E16,,60.63115,6.277064,,,0,NSR:StopPlace:30940,2,,,700
NSR:Quay:80431,,Snåsa stasjon,,64.24604,12.381517,,,0,NSR:StopPlace:46409,2,,,700
NSR:Quay:53024,,Bergen busstasjon,,60.38869,5.333038,,,0,NSR:StopPlace:30810,2,,G,700
NSR:Quay:80432,,Snåsa stasjon,,64.24578,12.380669,,,0,NSR:StopPlace:46409,2,,,700
NSR:Quay:1071,,Tønsberg stasjon,,59.27227,10.409335,,,0,NSR:StopPlace:653,2,,2,100
NSR:Quay:1070,,Tønsberg stasjon,,59.272305,10.409424,,,0,NSR:StopPlace:653,2,,3,100
NSR:Quay:1072,,Slitu stasjon,,59.566933,11.261982,,,0,NSR:StopPlace:654,2,,1,100
NSR:Quay:270,,Eidsvoll,,60.329872,11.2475,,,0,NSR:StopPlace:164,2,,,700
NSR:Quay:271,,Lørenskog stasjon,,59.945225,10.944475,,,0,NSR:StopPlace:163,2,,3,100
NSR:Quay:272,,Hønefoss,,60.169216,10.249783,,,0,NSR:StopPlace:165,2,,,700
NSR:Quay:273,,Lørenskog stasjon,,59.94491,10.945191,,,0,NSR:StopPlace:163,2,,1,100
NSR:Quay:274,,Eidsvoll Verk stasjon,,60.28786,11.169443,,,0,NSR:StopPlace:166,2,,1,100
NSR:Quay:275,,Eidsvoll Verk stasjon,,60.287823,11.169582,,,0,NSR:StopPlace:166,2,,2,100
NSR:Quay:276,,Haugenstua stasjon,,59.951603,10.908233,,,0,NSR:StopPlace:167,2,,2,100
NSR:Quay:38,,Drammen,ved Johan Jørgen Schwartz plass,59.739937,10.204325,,,0,NSR:StopPlace:21,2,,,700
NSR:Quay:278,,Haugenstua stasjon,,59.95152,10.908155,,,0,NSR:StopPlace:167,2,,1,100
NSR:Quay:279,,Løten stasjon,,60.81868,11.342367,,,0,NSR:StopPlace:169,2,,2,100
NSR:Quay:39,,Reitan stasjon,,62.80752,11.379191,,,0,NSR:StopPlace:20,2,,1,100
NSR:Quay:33,,Ringebu stasjon,,61.5291,10.139008,,,0,NSR:StopPlace:17,2,,2,100
NSR:Quay:1063,,Slependen stasjon,,59.88562,10.50267,,,0,NSR:StopPlace:648,2,,1,100
NSR:Quay:34,,Gulskogen stasjon,,59.743675,10.160213,,,0,NSR:StopPlace:18,2,,3,100
NSR:Quay:35,,Gulskogen stasjon,,59.743748,10.160229,,,0,NSR:StopPlace:18,2,,2,100
NSR:Quay:28076,,Lier stasjon,,59.7624,10.2893,,,0,NSR:StopPlace:16145,2,,,700
NSR:Quay:36,,Gulskogen stasjon,,59.743828,10.160248,,,0,NSR:StopPlace:18,2,,1,100
NSR:Quay:1067,,Dovre stasjon,,61.984486,9.257088,,,0,NSR:StopPlace:652,2,,1,100
NSR:Quay:28077,,Lier stasjon,,59.7624,10.2891,,,0,NSR:StopPlace:16145,2,,,700
NSR:Quay:32,,Ringebu stasjon,,61.52917,10.139035,,,0,NSR:StopPlace:17,2,,1,100
NSR:Quay:1069,,Tønsberg stasjon,,59.272224,10.409188,,,0,NSR:StopPlace:653,2,,1,100
NSR:Quay:1062,,Tangen,,60.615887,11.270581,,,0,NSR:StopPlace:649,2,,,700
NSR:Quay:1061,,Slependen stasjon,,59.885635,10.502816,,,0,NSR:StopPlace:648,2,,2,100
NSR:Quay:280,,Løten stasjon,,60.818707,11.342306,,,0,NSR:StopPlace:169,2,,1,100
NSR:Quay:283,,Eidsvoll Verk,,60.287315,11.169389,,,0,NSR:StopPlace:172,2,,,700
NSR:Quay:284,,Majavatn stasjon,,65.16439,13.367647,,,0,NSR:StopPlace:173,2,,1,100
NSR:Quay:285,,Majavatn stasjon,,65.1644,13.367577,,,0,NSR:StopPlace:173,2,,2,100
NSR:Quay:288,,Hjerkinn stasjon,,62.22002,9.540997,,,0,NSR:StopPlace:175,2,,1,100
NSR:Quay:289,,Fauske stasjon,,67.264404,15.399058,,,0,NSR:StopPlace:176,2,,2,100
NSR:Quay:1053,,Dombås stasjon,,62.069244,9.125924,,,0,NSR:StopPlace:645,2,,10,100
NSR:Quay:1055,,Tangen stasjon,,60.616104,11.269682,,,0,NSR:StopPlace:646,2,,1,100
NSR:Quay:1054,,Dombås stasjon,,62.068573,9.125902,,,0,NSR:StopPlace:645,2,,2,100
NSR:Quay:1057,,Tangen stasjon,,60.61613,11.26987,,,0,NSR:StopPlace:646,2,,2,100
NSR:Quay:1056,,Dombås stasjon,,62.06856,9.126061,,,0,NSR:StopPlace:645,2,,,100
NSR:Quay:1059,,Dombås stasjon,,62.068596,9.125728,,,0,NSR:StopPlace:645,2,,1,100
NSR:Quay:1058,,Dombås stasjon,,62.068546,9.126152,,,0,NSR:StopPlace:645,2,,,100
NSR:Quay:77211,,Skatval stasjon,,63.509026,10.826761,,,0,NSR:StopPlace:44835,2,,,700
NSR:Quay:77210,,Skatval stasjon,,63.509113,10.826485,,,0,NSR:StopPlace:44835,2,,,700
NSR:Quay:290,,Fauske stasjon,,67.26434,15.398885,,,0,NSR:StopPlace:176,2,,1,100
NSR:Quay:291,,Fauske stasjon,,67.26449,15.399254,,,0,NSR:StopPlace:176,2,,,100
NSR:Quay:292,,Fauske stasjon,,67.26451,15.399356,,,0,NSR:StopPlace:176,2,,,100
NSR:Quay:293,,Marnardal stasjon,,58.212963,7.51235,,,0,NSR:StopPlace:177,2,,1,100
NSR:Quay:294,,Marnardal stasjon,,58.212955,7.512227,,,0,NSR:StopPlace:177,2,,2,100
NSR:Quay:1049,,Kongsvoll stasjon,,62.30717,9.605787,,,0,NSR:StopPlace:641,2,,,100
NSR:Quay:297,,Meråker stasjon,,63.422756,11.760273,,,0,NSR:StopPlace:180,2,,1,100
NSR:Quay:299,,Meråker stasjon,,63.422375,11.759869,,,0,NSR:StopPlace:181,2,,,700
NSR:Quay:99,,Rosenholm,,59.823627,10.796493,,,0,NSR:StopPlace:62,2,,,700
NSR:Quay:1041,,Søberg stasjon,,63.26239,10.289112,,,0,NSR:StopPlace:636,2,,1,100
NSR:Quay:1044,,Dale stasjon,,60.586254,5.816115,,,0,NSR:StopPlace:639,2,,2,100
NSR:Quay:1043,,Dale stasjon,,60.586285,5.816032,,,0,NSR:StopPlace:639,2,,1,100
NSR:Quay:1046,,Sørumsand stasjon,,59.985794,11.240666,,,0,NSR:StopPlace:640,2,,,100
NSR:Quay:95,,Rosenholm stasjon,,59.82362,10.797949,,,0,NSR:StopPlace:60,2,,2,100
NSR:Quay:80621,,Røra stasjon,,63.856987,11.401259,,,0,NSR:StopPlace:46504,2,,,700
NSR:Quay:1045,,Sørumsand stasjon,,59.985847,11.240635,,,0,NSR:StopPlace:640,2,,1,100
NSR:Quay:1048,,Kongsvoll stasjon,,62.307095,9.605802,,,0,NSR:StopPlace:641,2,,1,100
NSR:Quay:1047,,Sørumsand stasjon,,59.98577,11.241194,,,0,NSR:StopPlace:640,2,,3,100
NSR:Quay:91,,Rotvoll stasjon,,63.436634,10.480708,,,0,NSR:StopPlace:57,2,,1,100
NSR:Quay:80622,,Røra stasjon,,63.85698,11.400884,,,0,NSR:StopPlace:46504,2,,,700
NSR:Quay:93,,Røstad,,63.752983,11.318917,,,0,NSR:StopPlace:59,2,,,700
NSR:Quay:94,,Rosenholm stasjon,,59.823627,10.797766,,,0,NSR:StopPlace:60,2,,1,100
NSR:Quay:1040,,Søberg stasjon,,63.262383,10.289257,,,0,NSR:StopPlace:636,2,,2,100
NSR:Quay:90,,Haga stasjon,,60.053932,11.375407,,,0,NSR:StopPlace:56,2,,,700
NSR:Quay:1039,,Degerfors,,59.2292,14.440879,,,0,NSR:StopPlace:637,2,,,700
NSR:Quay:1038,,Kongsvinger stasjon,,60.187607,12.003685,,,0,NSR:StopPlace:635,2,,1,100
NSR:Quay:88,,Røstad stasjon,,63.752968,11.319126,,,0,NSR:StopPlace:54,2,,1,100
NSR:Quay:1030,,Darbu,,59.701946,9.800688,,,0,NSR:StopPlace:631,2,,,700
NSR:Quay:84,,Haga stasjon,,60.054,11.373416,,,0,NSR:StopPlace:51,2,,2,100
NSR:Quay:1034,,Kongsvinger stasjon,,60.18769,12.003669,,,0,NSR:StopPlace:635,2,,2,100
NSR:Quay:86,,Røros stasjon,,62.574585,11.379022,,,0,NSR:StopPlace:53,2,,1,100
NSR:Quay:1037,,Kongsvinger stasjon,,60.18773,12.003666,,,0,NSR:StopPlace:635,2,,4,100
NSR:Quay:87,,Røros stasjon,,62.57454,11.379004,,,0,NSR:StopPlace:53,2,,2,100
NSR:Quay:80,,Drevvatn,,66.07134,13.455433,,,0,NSR:StopPlace:50,2,,,700
NSR:Quay:81,,Rognan stasjon,,67.0933,15.398624,,,0,NSR:StopPlace:49,2,,,100
NSR:Quay:82,,Rognan stasjon,,67.09335,15.398553,,,0,NSR:StopPlace:49,2,,1,100
NSR:Quay:83,,Haga stasjon,,60.05396,11.373484,,,0,NSR:StopPlace:51,2,,1,100
NSR:Quay:46532,,Moi stasjon,,58.45791,6.551521,,,0,NSR:StopPlace:26970,2,,,700
NSR:Quay:1027,,Kvam stasjon,,61.66479,9.701245,,,0,NSR:StopPlace:629,2,,1,100
NSR:Quay:1020,,Sirevåg stasjon,,58.50263,5.807473,,,0,NSR:StopPlace:624,2,,1,100
NSR:Quay:1022,,Karlstad Centralstation,,59.37809,13.498987,,,0,NSR:StopPlace:626,2,,,700
NSR:Quay:1024,,Darbu stasjon,,59.701717,9.800086,,,0,NSR:StopPlace:628,2,,2,100
NSR:Quay:1025,,Darbu stasjon,,59.70169,9.800137,,,0,NSR:StopPlace:628,2,,1,100
NSR:Quay:78578,,Bergsgrav,,63.77169,11.469078,,,0,NSR:StopPlace:45514,2,,,700
NSR:Quay:70,,Drevvatn stasjon,,66.07116,13.455723,,,0,NSR:StopPlace:44,2,,2,100
NSR:Quay:71,,Drevvatn stasjon,,66.07118,13.455674,,,0,NSR:StopPlace:44,2,,1,100
NSR:Quay:880,,Brakerøya stasjon,,59.743855,10.233041,,,0,NSR:StopPlace:536,2,,1,100
NSR:Quay:640,,Alna stasjon,,59.932404,10.835344,,,0,NSR:StopPlace:385,2,,1,100
NSR:Quay:641,,Alna stasjon,,59.932438,10.835194,,,0,NSR:StopPlace:385,2,,2,100
NSR:Quay:400,,Hokksund stasjon,,59.767193,9.910528,,,0,NSR:StopPlace:245,2,,2,100
NSR:Quay:642,,Lindeberg,,60.03975,11.127976,,,0,NSR:StopPlace:386,2,,,700
NSR:Quay:401,,Hokksund stasjon,,59.767174,9.910463,,,0,NSR:StopPlace:245,2,,3,100
NSR:Quay:633,,Arendal stasjon,,58.465134,8.769379,,,0,NSR:StopPlace:380,2,,1,100
NSR:Quay:634,,Lindeberg stasjon,,60.03947,11.128128,,,0,NSR:StopPlace:382,2,,1,100
NSR:Quay:876,,Bryn,,59.908627,10.818226,,,0,NSR:StopPlace:533,2,,,700
NSR:Quay:635,,Lindeberg stasjon,,60.039444,11.128284,,,0,NSR:StopPlace:382,2,,2,100
NSR:Quay:879,,Brakerøya stasjon,,59.743824,10.233122,,,0,NSR:StopPlace:536,2,,2,100
NSR:Quay:638,,Vestby stasjon,,59.60384,10.748561,,,0,NSR:StopPlace:384,2,,1,100
NSR:Quay:639,,Vestby stasjon,,59.603783,10.748703,,,0,NSR:StopPlace:384,2,,2,100
NSR:Quay:6144,,Heggedal stasjon,,59.787426,10.43265,,,0,NSR:StopPlace:3463,2,,,700
NSR:Quay:6143,,Heggedal stasjon,,59.78718,10.43228,,,0,NSR:StopPlace:3463,2,,,700
NSR:Quay:102393,,Lillestrøm bussterminal,,59.954453,11.042322,,,0,NSR:StopPlace:4489,2,,20,700
NSR:Quay:102394,,Lillestrøm bussterminal,,59.954308,11.043132,,,0,NSR:StopPlace:4489,2,,19,700
NSR:Quay:72888,,Melhus skysstasjon,,63.28467,10.278187,,,0,NSR:StopPlace:42547,2,,,700
NSR:Quay:102391,,Sørumsand stasjon,,59.986073,11.239593,,,0,NSR:StopPlace:4091,2,,,700
NSR:Quay:102392,,Sørumsand stasjon,,59.986015,11.239657,,,0,NSR:StopPlace:4091,2,,,700
NSR:Quay:102390,,Sørumsand stasjon,,59.98466,11.241701,,,0,NSR:StopPlace:4091,2,,,700
NSR:Quay:890,,Brumunddal stasjon,,60.880527,10.937426,,,0,NSR:StopPlace:542,2,,1,100
NSR:Quay:891,,Brumunddal stasjon,,60.88047,10.937268,,,0,NSR:StopPlace:542,2,,2,100
NSR:Quay:650,,Alvdal stasjon,,62.109444,10.632059,,,0,NSR:StopPlace:392,2,,1,100
NSR:Quay:101069,,Vikersund stasjon,,59.969486,9.997958,,,0,NSR:StopPlace:429,2,,5,100
NSR:Quay:892,,Klepp stasjon,,58.771675,5.677882,,,0,NSR:StopPlace:543,2,,1,100
NSR:Quay:651,,Leangen stasjon,,63.437584,10.461683,,,0,NSR:StopPlace:393,2,,2,100
NSR:Quay:893,,Klepp stasjon,,58.771637,5.678017,,,0,NSR:StopPlace:543,2,,2,100
NSR:Quay:652,,Leangen stasjon,,63.437637,10.461747,,,0,NSR:StopPlace:393,2,,,100
NSR:Quay:72889,,Melhus skysstasjon,,63.284794,10.277853,,,0,NSR:StopPlace:42547,2,,,700
NSR:Quay:410,,Nelaug stasjon,,58.657234,8.630418,,,0,NSR:StopPlace:250,2,,,100
NSR:Quay:894,,Klepp stasjon,,58.771626,5.67807,,,0,NSR:StopPlace:543,2,,3,100
NSR:Quay:411,,Nelaug stasjon,,58.65741,8.630696,,,0,NSR:StopPlace:250,2,,1,100
NSR:Quay:654,,Leangen stasjon,,63.43752,10.461575,,,0,NSR:StopPlace:393,2,,1,100
NSR:Quay:412,,Nelaug stasjon,,58.657322,8.630557,,,0,NSR:StopPlace:250,2,,3,100
NSR:Quay:896,,Brumunddal,,60.880653,10.938603,,,0,NSR:StopPlace:545,2,,,700
NSR:Quay:644,,Lilleby stasjon,,63.439907,10.43238,,,0,NSR:StopPlace:388,2,,1,100
NSR:Quay:402,,Hokksund stasjon,,59.76724,9.910672,,,0,NSR:StopPlace:245,2,,1,100
NSR:Quay:886,,Årnes stasjon,,60.123695,11.464829,,,0,NSR:StopPlace:540,2,,1,100
NSR:Quay:8558,,Sonsveien stasjon,,59.5148,10.726567,,,0,NSR:StopPlace:4728,2,,,700
NSR:Quay:82442,,Dunderland stasjon,,66.44602,14.837588,,,0,NSR:StopPlace:47788,2,,,700
NSR:Quay:887,,Årnes stasjon,,60.12353,11.464805,,,0,NSR:StopPlace:540,2,,4,100
NSR:Quay:646,,Lilleby stasjon,,63.439884,10.432905,,,0,NSR:StopPlace:391,2,,,700
NSR:Quay:404,,Nodeland stasjon,,58.156937,7.835274,,,0,NSR:StopPlace:246,2,,1,100
NSR:Quay:888,,Årnes stasjon,,60.123714,11.464732,,,0,NSR:StopPlace:540,2,,,100
NSR:Quay:647,,Verdal stasjon,,63.791,11.484227,,,0,NSR:StopPlace:390,2,,2,100
NSR:Quay:405,,Nodeland stasjon,,58.15699,7.835427,,,0,NSR:StopPlace:246,2,,2,100
NSR:Quay:889,,Årnes stasjon,,60.123734,11.464604,,,0,NSR:StopPlace:540,2,,,100
NSR:Quay:648,,Verdal stasjon,,63.791004,11.48435,,,0,NSR:StopPlace:390,2,,1,100
NSR:Quay:406,,Froland stasjon,,58.529427,8.65437,,,0,NSR:StopPlace:247,2,,1,100
NSR:Quay:649,,Alvdal stasjon,,62.108757,10.633336,,,0,NSR:StopPlace:392,2,,2,100
NSR:Quay:409,,Nelaug stasjon,,58.65728,8.630488,,,0,NSR:StopPlace:250,2,,4,100
NSR:Quay:660,,Arna stasjon,,60.419945,5.465376,,,0,NSR:StopPlace:398,2,,3,100
NSR:Quay:661,,Arna stasjon,,60.420345,5.466369,,,0,NSR:StopPlace:398,2,,5,100
NSR:Quay:662,,Arna stasjon,,60.42028,5.466444,,,0,NSR:StopPlace:398,2,,4,100
NSR:Quay:420,,Nerdrum,,59.923096,11.141681,,,0,NSR:StopPlace:256,2,,,700
NSR:Quay:664,,Ler stasjon,,63.19778,10.298017,,,0,NSR:StopPlace:400,2,,1,100
NSR:Quay:422,,Frogner,,60.023552,11.105205,,,0,NSR:StopPlace:258,2,,,700
NSR:Quay:665,,Ler stasjon,,63.19778,10.297912,,,0,NSR:StopPlace:400,2,,,100
NSR:Quay:7,,Otta stasjon,,61.77234,9.537337,,,0,NSR:StopPlace:4,2,,,100
NSR:Quay:6,,Drangedal stasjon,,59.09621,9.064381,,,0,NSR:StopPlace:1,2,,1,100
NSR:Quay:414,,Nelaug stasjon,,58.657337,8.630584,,,0,NSR:StopPlace:250,2,,2,100
NSR:Quay:656,,Vevelstad stasjon,,59.755684,10.837924,,,0,NSR:StopPlace:396,2,,2,100
NSR:Quay:898,,Ås stasjon,,59.66327,10.794491,,,0,NSR:StopPlace:547,2,,1,100
NSR:Quay:9,,Otta stasjon,,61.77235,9.53745,,,0,NSR:StopPlace:4,2,,,100
NSR:Quay:899,,Bergen stasjon,,60.390125,5.333626,,,0,NSR:StopPlace:548,2,,2,100
NSR:Quay:657,,Vevelstad stasjon,,59.756413,10.837264,,,0,NSR:StopPlace:396,2,,1,100
NSR:Quay:658,,Leangen stasjon,,63.436584,10.464478,,,0,NSR:StopPlace:397,2,,,700
NSR:Quay:8,,Drangedal stasjon,,59.09618,9.064469,,,0,NSR:StopPlace:1,2,,2,100
NSR:Quay:416,,Hegra stasjon,,63.461056,11.10377,,,0,NSR:StopPlace:253,2,,1,100
NSR:Quay:659,,Arna stasjon,,60.42031,5.467042,,,0,NSR:StopPlace:398,2,,2,100
NSR:Quay:417,,Nerdrum stasjon,,59.92277,11.141432,,,0,NSR:StopPlace:254,2,,1,100
NSR:Quay:418,,Frogner stasjon,,60.022877,11.103141,,,0,NSR:StopPlace:255,2,,1,100
NSR:Quay:59642,,Flåm stasjon,,60.863503,7.113967,,,0,NSR:StopPlace:34434,2,,,700
NSR:Quay:100192,,Åmotfors,,59.76884,12.36729,,,0,NSR:StopPlace:562,2,,,700
NSR:Quay:71578,,Hommelvik stasjon,,63.41143,10.794853,,,0,NSR:StopPlace:41831,2,,,700
NSR:Quay:100194,,Edane,,59.627136,12.82984,,,0,NSR:StopPlace:131,2,,,700
NSR:Quay:71579,,Hommelvik stasjon,,63.41147,10.794381,,,0,NSR:StopPlace:41831,2,,,700
NSR:Quay:100193,,Arvika,,59.653973,12.590911,,,0,NSR:StopPlace:408,2,,,700
NSR:Quay:100199,,Kristinehamn Resecentrum,,59.316425,14.107714,,,0,NSR:StopPlace:58188,2,,C,700
NSR:Quay:1,,Oslo S Trelastgata,,59.90955,10.75525,,,0,NSR:StopPlace:2,2,,30,700
NSR:Quay:430,,Ganddal stasjon,,58.823425,5.717205,,,0,NSR:StopPlace:261,2,,1,100
NSR:Quay:673,,Lesja stasjon,,62.118652,8.85403,,,0,NSR:StopPlace:406,2,,1,100
NSR:Quay:431,,Nesbyen,,60.577038,9.112371,,,0,NSR:StopPlace:262,2,,,700
NSR:Quay:674,,Lesja stasjon,,62.11872,8.854023,,,0,NSR:StopPlace:406,2,,,100
NSR:Quay:432,,Nordagutu stasjon,,59.418213,9.322874,,,0,NSR:StopPlace:263,2,,2,100
NSR:Quay:2,,Gudå stasjon,,63.443768,11.618216,,,0,NSR:StopPlace:3,2,,1,100
NSR:Quay:5,,Otta stasjon,,61.772324,9.537211,,,0,NSR:StopPlace:4,2,,2,100
NSR:Quay:433,,Nordagutu stasjon,,59.418198,9.322725,,,0,NSR:StopPlace:263,2,,1,100
NSR:Quay:675,,Vegårshei stasjon,,58.76083,8.855431,,,0,NSR:StopPlace:407,2,,1,100
NSR:Quay:100198,,Kristinehamn Resecentrum,,59.31648,14.107644,,,0,NSR:StopPlace:58188,2,,B,700
NSR:Quay:676,,Vegårshei stasjon,,58.760845,8.855404,,,0,NSR:StopPlace:407,2,,2,100
NSR:Quay:666,,Vestfossen stasjon,,59.734173,9.866761,,,0,NSR:StopPlace:401,2,,2,100
NSR:Quay:667,,Vestfossen stasjon,,59.73413,9.866963,,,0,NSR:StopPlace:401,2,,1,100
NSR:Quay:425,,Holmestrand stasjon,,59.490433,10.310712,,,0,NSR:StopPlace:259,2,,4,100
NSR:Quay:668,,Arna,,60.4204,5.467922,,,0,NSR:StopPlace:402,2,,,700
NSR:Quay:426,,Nesbyen stasjon,,60.576836,9.113328,,,0,NSR:StopPlace:260,2,,,100
NSR:Quay:669,,Ler stasjon,,63.19787,10.298186,,,0,NSR:StopPlace:403,2,,,700
NSR:Quay:427,,Holmestrand stasjon,,59.490337,10.310256,,,0,NSR:StopPlace:259,2,,1,100
NSR:Quay:428,,Nesbyen stasjon,,60.576794,9.113221,,,0,NSR:StopPlace:260,2,,1,100
NSR:Quay:429,,Ganddal stasjon,,58.823452,5.717108,,,0,NSR:StopPlace:261,2,,2,100
NSR:Quay:84884,,Messingslett kryss,,66.46907,14.85593,,,0,NSR:StopPlace:49622,2,,,700
NSR:Quay:84885,,Messingslett kryss,,66.46928,14.856336,,,0,NSR:StopPlace:49622,2,,,700
NSR:Quay:24358,,Lillehammer skysstasjon,,61.11473,10.46226,,,0,NSR:StopPlace:14115,2,,12,700
NSR:Quay:24357,,Lillehammer skysstasjon,,61.11527,10.46232,,,0,NSR:StopPlace:14115,2,,15,700
NSR:Quay:24356,,Lillehammer skysstasjon,,61.11538,10.46158,,,0,NSR:StopPlace:14115,2,,5,700
NSR:Quay:680,,Varhaug stasjon,,58.61836,5.646348,,,0,NSR:StopPlace:411,2,,1,100
NSR:Quay:681,,Varhaug stasjon,,58.61868,5.646345,,,0,NSR:StopPlace:411,2,,2,100
NSR:Quay:682,,Askim stasjon,,59.58174,11.16332,,,0,NSR:StopPlace:412,2,,1,100
NSR:Quay:683,,Varhaug stasjon,,58.61869,5.64646,,,0,NSR:StopPlace:411,2,,,100
NSR:Quay:441,,Hauerseter stasjon,,60.18473,11.195248,,,0,NSR:StopPlace:268,2,,3,100
NSR:Quay:200,,Ski stasjon,,59.71933,10.834551,,,0,NSR:StopPlace:127,2,,3,100
NSR:Quay:684,,Askim stasjon,,59.58183,11.163386,,,0,NSR:StopPlace:412,2,,2,100
NSR:Quay:443,,Hauerseter stasjon,,60.18474,11.195457,,,0,NSR:StopPlace:268,2,,1,100
NSR:Quay:201,,Ski stasjon,,59.71931,10.834697,,,0,NSR:StopPlace:127,2,,2,100
NSR:Quay:686,,Levanger stasjon,,63.744774,11.300721,,,0,NSR:StopPlace:413,2,,1,100
NSR:Quay:445,,Lademoen stasjon,,63.437267,10.416689,,,0,NSR:StopPlace:271,2,,1,100
NSR:Quay:687,,Levanger stasjon,,63.74474,11.300812,,,0,NSR:StopPlace:413,2,,2,100
NSR:Quay:203,,Ski,,59.717587,10.835258,,,0,NSR:StopPlace:129,2,,,700
NSR:Quay:435,,Nordagutu stasjon,,59.418224,9.322978,,,0,NSR:StopPlace:263,2,,3,100
NSR:Quay:677,,Arvika,,59.653515,12.592416,,,0,NSR:StopPlace:408,2,,,700
NSR:Quay:6345,,Greverud kirke,,59.774002,10.80514,,,0,NSR:StopPlace:3571,2,,,700
NSR:Quay:436,,Holmestrand,,59.49144,10.313213,,,0,NSR:StopPlace:264,2,,,700
NSR:Quay:437,,Ganddal stasjon,,58.823,5.71715,,,0,NSR:StopPlace:265,2,,,700
NSR:Quay:6344,,Greverud kirke,,59.77536,10.803565,,,0,NSR:StopPlace:3571,2,,,700
NSR:Quay:439,,Hauerseter stasjon,,60.184734,11.195307,,,0,NSR:StopPlace:268,2,,2,100
NSR:Quay:5495,,Lensmannslia,,59.831898,10.433884,,,0,NSR:StopPlace:3121,2,,,700
NSR:Quay:5493,,Lensmannslia,,59.830383,10.43342,,,0,NSR:StopPlace:3121,2,,,700
NSR:Quay:690,,Askim,,59.58153,11.163291,,,0,NSR:StopPlace:415,2,,,700
NSR:Quay:691,,Vikhammer stasjon,,63.4388,10.623648,,,0,NSR:StopPlace:416,2,,1,100
NSR:Quay:692,,Vikhammer stasjon,,63.438843,10.623608,,,0,NSR:StopPlace:416,2,,2,100
NSR:Quay:451,,Oslo Lufthavn stasjon,,60.192955,11.097078,,,0,NSR:StopPlace:269,2,,1,100
NSR:Quay:452,,Oslo Lufthavn stasjon,,60.193077,11.096393,,,0,NSR:StopPlace:269,2,,4,100
NSR:Quay:694,,Vikhamar,,63.43839,10.622669,,,0,NSR:StopPlace:419,2,,,700
NSR:Quay:453,,Oslo Lufthavn stasjon,,60.193043,11.09657,,,0,NSR:StopPlace:269,2,,3,100
NSR:Quay:695,,Asker stasjon,,59.83332,10.434574,,,0,NSR:StopPlace:418,2,,4,100
NSR:Quay:211,,Skien stasjon,,59.219368,9.603663,,,0,NSR:StopPlace:136,2,,1,100
NSR:Quay:696,,Asker stasjon,,59.833237,10.434846,,,0,NSR:StopPlace:418,2,,6,100
NSR:Quay:212,,Skien stasjon,,59.2193,9.603408,,,0,NSR:StopPlace:136,2,,3,100
NSR:Quay:455,,Hunderfossen stasjon,,61.223648,10.438605,,,0,NSR:StopPlace:274,2,,1,100
NSR:Quay:697,,Asker stasjon,,59.833366,10.43442,,,0,NSR:StopPlace:418,2,,3,100
NSR:Quay:213,,Skien stasjon,,59.219326,9.603515,,,0,NSR:StopPlace:136,2,,2,100
NSR:Quay:698,,Asker stasjon,,59.833447,10.434126,,,0,NSR:StopPlace:418,2,,1,100
NSR:Quay:456,,Namsskogan stasjon,,64.92579,13.152016,,,0,NSR:StopPlace:275,2,,1,100
NSR:Quay:688,,Levanger stasjon,,63.74469,11.300924,,,0,NSR:StopPlace:413,2,,,100
NSR:Quay:446,,Hauerseter,,60.18566,11.195873,,,0,NSR:StopPlace:272,2,,,700
NSR:Quay:9846,,Fjellhamar stasjon,,59.94126,10.979877,,,0,NSR:StopPlace:5385,2,,,700
NSR:Quay:447,,Oslo Lufthavn stasjon,,60.192986,11.096881,,,0,NSR:StopPlace:269,2,,2,100
NSR:Quay:689,,Varhaug,,58.61878,5.64583,,,0,NSR:StopPlace:414,2,,,700
NSR:Quay:205,,Edane,,59.627155,12.829497,,,0,NSR:StopPlace:131,2,,,700
NSR:Quay:78392,,Steinkjer stasjon,,64.01201,11.495959,,,0,NSR:StopPlace:45423,2,,,700
NSR:Quay:6333,,Myrvoll stasjon,,59.78758,10.801348,,,0,NSR:StopPlace:3565,2,,,700
NSR:Quay:206,,Stokke stasjon,,59.22138,10.300277,,,0,NSR:StopPlace:132,2,,1,100
NSR:Quay:15868,,Skavbakken,,60.63268,11.298633,,,0,NSR:StopPlace:9166,2,,,700
NSR:Quay:78391,,Steinkjer stasjon,,64.01232,11.495513,,,0,NSR:StopPlace:45423,2,,,700
NSR:Quay:10188,,Sagdalen,,59.957787,11.016468,,,0,NSR:StopPlace:5565,2,,,700
NSR:Quay:6332,,Myrvoll stasjon,,59.78772,10.800995,,,0,NSR:StopPlace:3565,2,,,700
NSR:Quay:207,,Stokke stasjon,,59.22146,10.300142,,,0,NSR:StopPlace:132,2,,2,100
NSR:Quay:10187,,Sagdalen,,59.95687,11.015207,,,0,NSR:StopPlace:5565,2,,,700
NSR:Quay:208,,Heia stasjon,,59.473106,11.329735,,,0,NSR:StopPlace:133,2,,1,100
NSR:Quay:10186,,Sagdalen,,59.95727,11.017013,,,0,NSR:StopPlace:5565,2,,,700
NSR:Quay:9844,,Fjellhamar stasjon,,59.94091,10.981889,,,0,NSR:StopPlace:5385,2,,,700
NSR:Quay:72854,,Melhus skysstasjon,,63.284664,10.278286,,,0,NSR:StopPlace:42547,2,,,700
NSR:Quay:24377,,Lillehammer skysstasjon,,61.11519,10.46165,,,0,NSR:StopPlace:14115,2,,4,700
NSR:Quay:24376,,Lillehammer skysstasjon,,61.1156,10.46211,,,0,NSR:StopPlace:14115,2,,17,700
NSR:Quay:24375,,Lillehammer skysstasjon,,61.11487,10.46249,,,0,NSR:StopPlace:14115,2,,13,700
NSR:Quay:24374,,Lillehammer skysstasjon,,61.11544,10.46222,,,0,NSR:StopPlace:14115,2,,16,700
NSR:Quay:460,,Oslo Lufthavn,,60.193398,11.096996,,,0,NSR:StopPlace:278,2,,,700
NSR:Quay:24372,,Lillehammer skysstasjon,,61.114582,10.461971,,,0,NSR:StopPlace:14115,2,,1,700
NSR:Quay:24371,,Lillehammer skysstasjon,,61.11506,10.46242,,,0,NSR:StopPlace:14115,2,,14,700
NSR:Quay:220,,Hell stasjon,,63.44612,10.896353,,,0,NSR:StopPlace:141,2,,,100
NSR:Quay:462,,Nordstrand stasjon,,59.86373,10.785639,,,0,NSR:StopPlace:279,2,,2,100
NSR:Quay:24370,,Lillehammer skysstasjon,,61.11527,10.46189,,,0,NSR:StopPlace:14115,2,,9,700
NSR:Quay:221,,Hell stasjon,,63.44617,10.896348,,,0,NSR:StopPlace:141,2,,,100
NSR:Quay:463,,Nordstrand stasjon,,59.863728,10.785578,,,0,NSR:StopPlace:279,2,,1,100
NSR:Quay:464,,Nordstrand,,59.864544,10.785883,,,0,NSR:StopPlace:281,2,,,700
NSR:Quay:223,,Evenstad stasjon,,61.423233,11.099747,,,0,NSR:StopPlace:143,2,,1,100
NSR:Quay:465,,Gausel stasjon,,58.89988,5.740225,,,0,NSR:StopPlace:282,2,,1,100
NSR:Quay:224,,Skansen stasjon,,63.43116,10.377665,,,0,NSR:StopPlace:144,2,,1,100
NSR:Quay:466,,Gausel stasjon,,58.899876,5.740126,,,0,NSR:StopPlace:282,2,,2,100
NSR:Quay:699,,Asker stasjon,,59.833286,10.434682,,,0,NSR:StopPlace:418,2,,5,100
NSR:Quay:7898,,Lysaker stasjon,,59.913082,10.638006,,,0,NSR:StopPlace:4377,2,,E,700
NSR:Quay:457,,Namsskogan stasjon,,64.92576,13.152003,,,0,NSR:StopPlace:275,2,,2,100
NSR:Quay:7899,,Lysaker stasjon,,59.913048,10.637649,,,0,NSR:StopPlace:4377,2,,D,700
NSR:Quay:458,,Namsskogan,,64.92597,13.152147,,,0,NSR:StopPlace:276,2,,,700
NSR:Quay:7657,,Rånåsfoss stasjon,,60.029522,11.32919,,,0,NSR:StopPlace:4239,2,,,700
NSR:Quay:459,,Hunderfossen,,61.22659,10.438602,,,0,NSR:StopPlace:277,2,,,700
NSR:Quay:217,,Skoppum stasjon,,59.390995,10.410895,,,0,NSR:StopPlace:140,2,,2,100
NSR:Quay:7659,,Rånåsfoss stasjon,,60.02976,11.329117,,,0,NSR:StopPlace:4239,2,,,700
NSR:Quay:218,,Skoppum stasjon,,59.39099,10.411018,,,0,NSR:StopPlace:140,2,,1,100
NSR:Quay:219,,Hell stasjon,,63.446045,10.896367,,,0,NSR:StopPlace:141,2,,1,100
NSR:Quay:100148,,Oslo S Trelastgata,Foran Hotel Opera,59.9097,10.752796,,,0,NSR:StopPlace:2,2,,,700
NSR:Quay:7895,,Lysaker stasjon,,59.913177,10.6373,,,0,NSR:StopPlace:4377,2,,A,700
NSR:Quay:7896,,Lysaker stasjon,,59.91302,10.637327,,,0,NSR:StopPlace:4377,2,,C,700
NSR:Quay:7897,,Lysaker stasjon,,59.9132,10.638097,,,0,NSR:StopPlace:4377,2,,B,700
NSR:Quay:24369,,Lillehammer skysstasjon,,61.11492,10.4622,,,0,NSR:StopPlace:14115,2,,11,700
NSR:Quay:24368,,Lillehammer skysstasjon,,61.11479,10.46215,,,0,NSR:StopPlace:14115,2,,7,700
NSR:Quay:100150,,Drammen,ved rundkjøringen under bybrua,59.740658,10.202565,,,0,NSR:StopPlace:21,2,,,700
NSR:Quay:24367,,Lillehammer skysstasjon,,61.11495,10.46205,,,0,NSR:StopPlace:14115,2,,8,700
NSR:Quay:24365,,Lillehammer skysstasjon,,61.11525,10.46205,,,0,NSR:StopPlace:14115,2,,10,700
NSR:Quay:470,,Notodden stasjon,,59.55902,9.267316,,,0,NSR:StopPlace:283,2,,3,100
NSR:Quay:471,,Gausel,,58.89995,5.73985,,,0,NSR:StopPlace:285,2,,,700
NSR:Quay:24361,,Lillehammer skysstasjon,,61.11501,10.46174,,,0,NSR:StopPlace:14115,2,,3,700
NSR:Quay:230,,Skatval stasjon,,63.50866,10.825782,,,0,NSR:StopPlace:148,2,,1,100
NSR:Quay:24360,,Lillehammer skysstasjon,,61.11481,10.461827,,,0,NSR:StopPlace:14115,2,,2,700
NSR:Quay:231,,Hellvik stasjon,,58.485806,5.897563,,,0,NSR:StopPlace:149,2,,2,100
NSR:Quay:100158,,Oteråga stasjon,,67.29922,14.871304,,,0,NSR:StopPlace:58415,2,,1,100
NSR:Quay:473,,Hauketo stasjon,,59.845776,10.80295,,,0,NSR:StopPlace:287,2,,2,100
NSR:Quay:232,,Hellvik stasjon,,58.485775,5.897448,,,0,NSR:StopPlace:149,2,,1,100
NSR:Quay:474,,Hauketo stasjon,,59.845974,10.802798,,,0,NSR:StopPlace:287,2,,1,100
NSR:Quay:475,,Nationaltheatret stasjon,tog retning Drammen,59.91554,10.728612,,,0,NSR:StopPlace:288,2,,1,100
NSR:Quay:101242,,Rognan E6,,67.08367,15.385623,,,0,NSR:StopPlace:59313,2,,,700
NSR:Quay:234,,Evanger stasjon,,60.647015,6.109718,,,0,NSR:StopPlace:151,2,,1,100
NSR:Quay:476,,Nationaltheatret stasjon,tog retning Oslo S,59.91526,10.727513,,,0,NSR:StopPlace:288,2,,4,100
NSR:Quay:235,,Evanger stasjon,,60.646965,6.109699,,,0,NSR:StopPlace:151,2,,2,100
NSR:Quay:477,,Nationaltheatret stasjon,tog retning Oslo S,59.915363,10.727551,,,0,NSR:StopPlace:288,2,,3,100
NSR:Quay:478,,Nationaltheatret stasjon,tog retning Drammen,59.915447,10.72858,,,0,NSR:StopPlace:288,2,,2,100
NSR:Quay:236,,Skøyen stasjon,,59.922268,10.67863,,,0,NSR:StopPlace:152,2,,4,100
NSR:Quay:226,,Hell,,63.445915,10.899288,,,0,NSR:StopPlace:145,2,,,700
NSR:Quay:468,,Notodden stasjon,,59.55916,9.267189,,,0,NSR:StopPlace:283,2,,1,100
NSR:Quay:227,,Skansen,,63.431194,10.378787,,,0,NSR:StopPlace:146,2,,,700
NSR:Quay:469,,Notodden stasjon,,59.559208,9.267303,,,0,NSR:StopPlace:283,2,,2,100
NSR:Quay:229,,Skatval stasjon,,63.508575,10.825779,,,0,NSR:StopPlace:148,2,,2,100
NSR:Quay:76713,,Kopperå stasjon,,63.39192,11.846951,,,0,NSR:StopPlace:44591,2,,,700
NSR:Quay:76712,,Kopperå stasjon,,63.391983,11.846941,,,0,NSR:StopPlace:44591,2,,,700
NSR:Quay:98502,,Moss,,59.43176,10.657359,,,0,NSR:StopPlace:204,2,,,700
NSR:Quay:2865,,Knapstad,,59.620518,11.031755,,,0,NSR:StopPlace:1676,2,,,700
NSR:Quay:2864,,Knapstad,,59.62035,11.030284,,,0,NSR:StopPlace:1676,2,,,700
NSR:Quay:85672,,Mørkved,,67.28336,14.555382,,,0,NSR:StopPlace:50180,2,,,700
NSR:Quay:85673,,Mørkved,,67.283325,14.554034,,,0,NSR:StopPlace:50180,2,,,700
NSR:Quay:102541,,Oslo Tollbugata,,59.90904,10.748827,,,0,NSR:StopPlace:60158,2,,,700
NSR:Quay:910,,Bergen,,60.390545,5.33276,,,0,NSR:StopPlace:552,2,,,700
NSR:Quay:911,,Kløfta stasjon,,60.0754,11.139276,,,0,NSR:StopPlace:553,2,,3,100
NSR:Quay:912,,Kløfta stasjon,,60.075405,11.13904,,,0,NSR:StopPlace:553,2,,4,100
NSR:Quay:915,,Åsen stasjon,,63.60939,11.052345,,,0,NSR:StopPlace:554,2,,2,100
NSR:Quay:916,,Åsen stasjon,,63.609417,11.052292,,,0,NSR:StopPlace:554,2,,1,100
NSR:Quay:917,,Breland stasjon,,58.199627,7.719902,,,0,NSR:StopPlace:555,2,,2,100
NSR:Quay:918,,Breland stasjon,,58.19958,7.719913,,,0,NSR:StopPlace:555,2,,1,100
NSR:Quay:99820,,Geilo stasjon,,60.534306,8.205885,,,0,NSR:StopPlace:16240,2,,,700
NSR:Quay:99821,,Geilo stasjon,,60.534622,8.207554,,,0,NSR:StopPlace:16240,2,,,700
NSR:Quay:922,,Knapstad stasjon,,59.62636,11.032393,,,0,NSR:StopPlace:560,2,,1,100
NSR:Quay:923,,Brusand stasjon,,58.540405,5.749113,,,0,NSR:StopPlace:561,2,,1,100
NSR:Quay:924,,Brusand stasjon,,58.54046,5.749179,,,0,NSR:StopPlace:561,2,,2,100
NSR:Quay:925,,Åmotfors,,59.768757,12.36699,,,0,NSR:StopPlace:562,2,,,700
NSR:Quay:926,,Knapstad,,59.624046,11.032941,,,0,NSR:StopPlace:563,2,,,700
NSR:Quay:927,,Brusand,,58.541286,5.746429,,,0,NSR:StopPlace:564,2,,,700
NSR:Quay:26439,,Vestfossen stasjon,,59.7344,9.8678,,,0,NSR:StopPlace:15269,2,,,700
NSR:Quay:931,,Bryne stasjon,,58.734695,5.649469,,,0,NSR:StopPlace:568,2,,1,100
NSR:Quay:932,,Bryne stasjon,,58.734688,5.6496,,,0,NSR:StopPlace:568,2,,2,100
NSR:Quay:934,,Bryne,,58.734863,5.649116,,,0,NSR:StopPlace:571,2,,,700
NSR:Quay:935,,Kolbotn stasjon,,59.810917,10.800796,,,0,NSR:StopPlace:572,2,,2,100
NSR:Quay:101435,,Fonnfjell hotell,,63.41855,11.737623,,,0,NSR:StopPlace:59447,2,,,700
NSR:Quay:936,,Kolbotn stasjon,,59.81096,10.800929,,,0,NSR:StopPlace:572,2,,1,100
NSR:Quay:937,,Kolbotn stasjon,,59.81089,10.80074,,,0,NSR:StopPlace:572,2,,3,100
NSR:Quay:938,,Örebro C,,59.27792,15.211217,,,0,NSR:StopPlace:573,2,,,700
NSR:Quay:101685,,Arna,,60.420403,5.467922,,,0,NSR:StopPlace:402,2,,,700
NSR:Quay:950,,Bulken stasjon,,60.630608,6.284325,,,0,NSR:StopPlace:584,2,,,100
NSR:Quay:951,,Bulken stasjon,,60.630657,6.28439,,,0,NSR:StopPlace:584,2,,1,100
NSR:Quay:941,,Tverlandet stasjon,,67.30126,14.746538,,,0,NSR:StopPlace:575,2,,1,100
NSR:Quay:700,,Asker stasjon,,59.8334,10.434301,,,0,NSR:StopPlace:418,2,,2,100
NSR:Quay:942,,Kolbotn,,59.81109,10.801202,,,0,NSR:StopPlace:576,2,,,700
NSR:Quay:701,,Lillehammer stasjon,,61.114754,10.461243,,,0,NSR:StopPlace:420,2,,1,100
NSR:Quay:943,,Billingstad stasjon,,59.87481,10.483031,,,0,NSR:StopPlace:577,2,,1,100
NSR:Quay:702,,Lillehammer stasjon,,61.114746,10.461034,,,0,NSR:StopPlace:420,2,,2,100
NSR:Quay:944,,Tverlandet,,67.29822,14.747587,,,0,NSR:StopPlace:578,2,,,700
NSR:Quay:703,,Lillehammer stasjon,,61.114742,10.460933,,,0,NSR:StopPlace:420,2,,3,100
NSR:Quay:945,,Billingstad stasjon,,59.874756,10.483083,,,0,NSR:StopPlace:577,2,,2,100
NSR:Quay:946,,Koppang stasjon,,61.573013,11.043963,,,0,NSR:StopPlace:580,2,,2,100
NSR:Quay:704,,Vigrestad stasjon,,58.57036,5.687208,,,0,NSR:StopPlace:421,2,,1,100
NSR:Quay:947,,Koppang stasjon,,61.573063,11.044119,,,0,NSR:StopPlace:580,2,,1,100
NSR:Quay:705,,Vigrestad stasjon,,58.57032,5.687168,,,0,NSR:StopPlace:421,2,,2,100
NSR:Quay:706,,Lillehammer skysstasjon,,61.115616,10.461423,,,0,NSR:StopPlace:14115,2,,6,700
NSR:Quay:707,,Vigrestad,,58.570538,5.687625,,,0,NSR:StopPlace:423,2,,,700
NSR:Quay:709,,Vinstra stasjon,,61.59539,9.746924,,,0,NSR:StopPlace:425,2,,1,100
NSR:Quay:100320,,Lassemoen stasjon,,64.696075,12.71487,,,0,NSR:StopPlace:58597,2,,,700
NSR:Quay:960,,Storlien station,,63.31605,12.100064,,,0,NSR:StopPlace:591,2,,2,100
NSR:Quay:100561,,Kløfta E6 Skibakk,,60.078896,11.152384,,,0,NSR:StopPlace:59289,2,,,700
NSR:Quay:961,,Kopperå stasjon,,63.39218,11.84854,,,0,NSR:StopPlace:592,2,,,100
NSR:Quay:720,,Vikersund,,59.968876,9.998499,,,0,NSR:StopPlace:432,2,,,700
NSR:Quay:962,,Storlien station,,63.316013,12.100013,,,0,NSR:StopPlace:591,2,,3,100
NSR:Quay:710,,Vinstra stasjon,,61.59534,9.746843,,,0,NSR:StopPlace:425,2,,2,100
NSR:Quay:952,,Storekvina stasjon,,58.37964,6.957863,,,0,NSR:StopPlace:585,2,,1,100
NSR:Quay:953,,Kotsøy stasjon,,62.976418,10.561172,,,0,NSR:StopPlace:586,2,,1,100
NSR:Quay:711,,Lier stasjon,,59.763412,10.290485,,,0,NSR:StopPlace:426,2,,2,100
NSR:Quay:712,,Lier stasjon,,59.7635,10.290391,,,0,NSR:StopPlace:426,2,,1,100
NSR:Quay:713,,Atna stasjon,,61.732357,10.835201,,,0,NSR:StopPlace:427,2,,2,100
NSR:Quay:714,,Atna stasjon,,61.73232,10.835097,,,0,NSR:StopPlace:427,2,,1,100
NSR:Quay:957,,Bø stasjon,,59.40919,9.069262,,,0,NSR:StopPlace:590,2,,2,100
NSR:Quay:9698,,Korsegården,avkjøringsrampe sørgående retning,59.663498,10.744704,,,0,NSR:StopPlace:5311,2,,,700
NSR:Quay:958,,Bø stasjon,,59.409245,9.069243,,,0,NSR:StopPlace:590,2,,1,100
NSR:Quay:959,,Storlien station,,63.316124,12.100158,,,0,NSR:StopPlace:591,2,,1,100
NSR:Quay:718,,Vikersund stasjon,,59.969234,9.998216,,,0,NSR:StopPlace:429,2,,1,100
NSR:Quay:719,,Vikersund stasjon,,59.969555,9.998387,,,0,NSR:StopPlace:429,2,,2,100
NSR:Quay:9697,,Korsegården,påkjøringsrampe nordgående retning,59.663376,10.746096,,,0,NSR:StopPlace:5311,2,,,700
NSR:Quay:73414,,Lerkendal gård,,63.41278,10.407832,,,0,NSR:StopPlace:42827,2,,,700
NSR:Quay:73415,,Lerkendal gård,,63.413006,10.409538,,,0,NSR:StopPlace:42827,2,,,700
NSR:Quay:3900,,Mysen stasjon,,59.55414,11.324413,,,0,NSR:StopPlace:2251,2,,,700
NSR:Quay:970,,Bøylestad stasjon,,58.57659,8.705753,,,0,NSR:StopPlace:597,2,,1,100
NSR:Quay:972,,Stavanger stasjon,,58.966534,5.732758,,,0,NSR:StopPlace:596,2,,4,100
NSR:Quay:3902,,Mysen stasjon,,59.55415,11.3246,,,0,NSR:StopPlace:2251,2,,,700
NSR:Quay:731,,Ljosanbotn stasjon,,60.708694,6.901305,,,0,NSR:StopPlace:439,2,,1,100
NSR:Quay:963,,Kopperå stasjon,,63.39212,11.848494,,,0,NSR:StopPlace:592,2,,1,100
NSR:Quay:721,,Ljan stasjon,,59.85253,10.7845,,,0,NSR:StopPlace:433,2,,1,100
NSR:Quay:723,,Ljan stasjon,,59.852524,10.784667,,,0,NSR:StopPlace:433,2,,2,100
NSR:Quay:724,,Audnedal stasjon,,58.3189,7.367336,,,0,NSR:StopPlace:434,2,,1,100
NSR:Quay:725,,Audnedal stasjon,,58.318886,7.367248,,,0,NSR:StopPlace:434,2,,2,100
NSR:Quay:967,,Stavanger stasjon,,58.966473,5.732575,,,0,NSR:StopPlace:596,2,,3,100
NSR:Quay:726,,Vennesla stasjon,,58.25297,7.967733,,,0,NSR:StopPlace:435,2,,2,100
NSR:Quay:968,,Stavanger stasjon,,58.966354,5.732329,,,0,NSR:StopPlace:596,2,,1,100
NSR:Quay:727,,Vennesla stasjon,,58.252987,7.967633,,,0,NSR:StopPlace:435,2,,1,100
NSR:Quay:8110,,Lillestrøm bussterminal,,59.95406,11.042319,,,0,NSR:StopPlace:4489,2,,10,700
NSR:Quay:7263,,Sandvika bussterminal,Alternativ transport (Flytoget - Buss),59.8932,10.525278,,,0,NSR:StopPlace:4030,2,,6,700
NSR:Quay:729,,Ljan,,59.852936,10.784886,,,0,NSR:StopPlace:437,2,,,700
NSR:Quay:8111,,Lillestrøm bussterminal,,59.954094,11.042107,,,0,NSR:StopPlace:4489,2,,12,700
NSR:Quay:7264,,Sandvika bussterminal,,59.893066,10.524862,,,0,NSR:StopPlace:4030,2,,5,700
NSR:Quay:7265,,Sandvika bussterminal,,59.892796,10.52446,,,0,NSR:StopPlace:4030,2,,2,700
NSR:Quay:7266,,Sandvika bussterminal,,59.892776,10.523988,,,0,NSR:StopPlace:4030,2,,4,700
NSR:Quay:7261,,Sandvika bussterminal,,59.89299,10.524977,,,0,NSR:StopPlace:4030,2,,1,700
NSR:Quay:100301,,Göteborg Centralstation,,57.709866,11.974041,,,0,NSR:StopPlace:374,2,,15,100
NSR:Quay:980,,Berkåk stasjon,,62.822994,10.01469,,,0,NSR:StopPlace:602,2,,,100
NSR:Quay:100300,,Göteborg Centralstation,,57.7099,11.974009,,,0,NSR:StopPlace:374,2,,16,100
NSR:Quay:981,,Støren stasjon,,63.051743,10.285531,,,0,NSR:StopPlace:603,2,,4,100
NSR:Quay:982,,Støren stasjon,,63.051617,10.285139,,,0,NSR:StopPlace:603,2,,1,100
NSR:Quay:740,,Vieren stasjon,,60.709248,6.979523,,,0,NSR:StopPlace:445,2,,1,100
NSR:Quay:741,,Langlete stasjon,,62.96051,10.979502,,,0,NSR:StopPlace:446,2,,1,100
NSR:Quay:984,,Støren stasjon,,63.05161,10.285268,,,0,NSR:StopPlace:603,2,,2,100
NSR:Quay:742,,Auma stasjon,,62.220596,10.65863,,,0,NSR:StopPlace:447,2,,1,100
NSR:Quay:500,,Høvik stasjon,,59.90107,10.582723,,,0,NSR:StopPlace:303,2,,,100
NSR:Quay:8107,,Lillestrøm bussterminal,,59.954014,11.042633,,,0,NSR:StopPlace:4489,2,,7,700
NSR:Quay:732,,Voss stasjon,,60.62914,6.409433,,,0,NSR:StopPlace:440,2,,2,100
NSR:Quay:974,,Stavanger stasjon,,58.9664,5.732441,,,0,NSR:StopPlace:596,2,,2,100
NSR:Quay:84314,,Røklandsenteret,,66.98147,15.315283,,,0,NSR:StopPlace:49216,2,,,700
NSR:Quay:100307,,Göteborg Centralstation,,57.709293,11.975414,,,0,NSR:StopPlace:374,2,,5,100
NSR:Quay:733,,Voss stasjon,,60.62918,6.409409,,,0,NSR:StopPlace:440,2,,3,100
NSR:Quay:100306,,Göteborg Centralstation,,57.709335,11.975379,,,0,NSR:StopPlace:374,2,,6,100
NSR:Quay:8109,,Lillestrøm bussterminal,,59.95392,11.043247,,,0,NSR:StopPlace:4489,2,,1,700
NSR:Quay:734,,Voss stasjon,,60.62908,6.409817,,,0,NSR:StopPlace:440,2,,1,100
NSR:Quay:100309,,Göteborg Centralstation,,57.70917,11.975508,,,0,NSR:StopPlace:374,2,,3,100
NSR:Quay:735,,Voss stasjon,,60.629433,6.412698,,,0,NSR:StopPlace:440,2,,,100
NSR:Quay:100308,,Göteborg Centralstation,,57.709213,11.97547,,,0,NSR:StopPlace:374,2,,4,100
NSR:Quay:8103,,Lillestrøm bussterminal,,59.95411,11.042008,,,0,NSR:StopPlace:4489,2,,13,700
NSR:Quay:978,,Stavanger,,58.966625,5.732917,,,0,NSR:StopPlace:600,2,,,700
NSR:Quay:736,,Auli stasjon,,60.03901,11.351679,,,0,NSR:StopPlace:441,2,,1,100
NSR:Quay:100303,,Göteborg Centralstation,,57.709488,11.97429,,,0,NSR:StopPlace:374,2,,10,100
NSR:Quay:8104,,Lillestrøm bussterminal,,59.954124,11.041903,,,0,NSR:StopPlace:4489,2,,14,700
NSR:Quay:979,,Berkåk stasjon,,62.822964,10.014558,,,0,NSR:StopPlace:602,2,,1,100
NSR:Quay:737,,Ljosanbotn,,60.70949,6.901563,,,0,NSR:StopPlace:442,2,,,700
NSR:Quay:100302,,Göteborg Centralstation,,57.709595,11.974223,,,0,NSR:StopPlace:374,2,,11,100
NSR:Quay:8105,,Lillestrøm bussterminal,,59.954044,11.042424,,,0,NSR:StopPlace:4489,2,,9,700
NSR:Quay:738,,Voss stasjon,,60.628952,6.411315,,,0,NSR:StopPlace:443,2,,,700
NSR:Quay:100305,,Göteborg Centralstation,,57.70929,11.974419,,,0,NSR:StopPlace:374,2,,7,100
NSR:Quay:7259,,Sandvika bussterminal,,59.89259,10.523902,,,0,NSR:StopPlace:4030,2,,3,700
NSR:Quay:739,,Auli,,60.0389,11.351986,,,0,NSR:StopPlace:444,2,,,700
NSR:Quay:100304,,Göteborg Centralstation,,57.70933,11.974395,,,0,NSR:StopPlace:374,2,,8,100
NSR:Quay:8100,,Lillestrøm bussterminal,,59.953995,11.042738,,,0,NSR:StopPlace:4489,2,,6,700
NSR:Quay:8102,,Lillestrøm bussterminal,,59.95414,11.041799,,,0,NSR:StopPlace:4489,2,,15,700
NSR:Quay:990,,Sandvika stasjon,,59.89286,10.525817,,,0,NSR:StopPlace:610,2,,3,100
NSR:Quay:991,,Sandvika stasjon,,59.893,10.525611,,,0,NSR:StopPlace:610,2,,1,100
NSR:Quay:750,,Lillestrøm stasjon,,59.953003,11.04483,,,0,NSR:StopPlace:451,2,,8,100
NSR:Quay:992,,Sandvika stasjon,,59.892944,10.525696,,,0,NSR:StopPlace:610,2,,2,100
NSR:Quay:993,,Sandvika stasjon,,59.8928,10.525884,,,0,NSR:StopPlace:610,2,,4,100
NSR:Quay:102970,,Skien stasjon,,59.218315,9.603204,,,0,NSR:StopPlace:19974,2,,,700
NSR:Quay:995,,Kristiansand stasjon,,58.145573,7.986889,,,0,NSR:StopPlace:609,2,,2,100
NSR:Quay:511,,Ogna,,58.519585,5.803791,,,0,NSR:StopPlace:310,2,,,700
NSR:Quay:985,,Støren stasjon,,63.051746,10.285498,,,0,NSR:StopPlace:603,2,,3,100
NSR:Quay:743,,Auma stasjon,,62.220577,10.658771,,,0,NSR:StopPlace:447,2,,,100
NSR:Quay:501,,Høvik stasjon,,59.90102,10.582758,,,0,NSR:StopPlace:303,2,,,100
NSR:Quay:504,,Nyland stasjon,,59.9439,10.871696,,,0,NSR:StopPlace:305,2,,1,100
NSR:Quay:747,,Lillestrøm stasjon,,59.953156,11.044714,,,0,NSR:StopPlace:451,2,,6,100
NSR:Quay:989,,Bråstad stasjon,,58.462765,8.689638,,,0,NSR:StopPlace:608,2,,1,100
NSR:Quay:505,,Nyland stasjon,,59.94398,10.871594,,,0,NSR:StopPlace:305,2,,2,100
NSR:Quay:749,,Lillestrøm stasjon,,59.95309,11.044765,,,0,NSR:StopPlace:451,2,,7,100
NSR:Quay:507,,Ogna stasjon,,58.51974,5.803152,,,0,NSR:StopPlace:309,2,,2,100
NSR:Quay:508,,Ogna stasjon,,58.51977,5.803227,,,0,NSR:StopPlace:309,2,,1,100
NSR:Quay:1138,,Spikkestad,,59.745926,10.340166,,,0,NSR:StopPlace:696,2,,,700
NSR:Quay:1137,,Tuen stasjon,,59.942993,11.102446,,,0,NSR:StopPlace:695,2,,1,100
NSR:Quay:5736,,Asker stasjon,,59.832798,10.433098,,,0,NSR:StopPlace:3247,2,,7,700
NSR:Quay:5735,,Asker stasjon,,59.833805,10.434431,,,0,NSR:StopPlace:3247,2,,1,700
NSR:Quay:5730,,Asker stasjon,,59.833378,10.433852,,,0,NSR:StopPlace:3247,2,,4,700
NSR:Quay:1130,,Spydeberg stasjon,,59.621033,11.079782,,,0,NSR:StopPlace:691,2,,1,100
NSR:Quay:100529,,Trondheim S,,63.43605,10.395601,,,0,NSR:StopPlace:659,2,,23,100
NSR:Quay:1131,,Spydeberg stasjon,,59.62111,11.079701,,,0,NSR:StopPlace:691,2,,2,100
NSR:Quay:5734,,Asker stasjon,,59.833652,10.434228,,,0,NSR:StopPlace:3247,2,,2,700
NSR:Quay:1134,,Spikkestad stasjon,,59.74503,10.343757,,,0,NSR:StopPlace:694,2,,2,100
NSR:Quay:5733,,Asker stasjon,,59.83302,10.433372,,,0,NSR:StopPlace:3247,2,,6,700
NSR:Quay:5732,,Asker stasjon,,59.832615,10.432819,,,0,NSR:StopPlace:3247,2,,8,700
NSR:Quay:1136,,Spikkestad stasjon,,59.744923,10.343665,,,0,NSR:StopPlace:694,2,,1,100
NSR:Quay:5731,,Asker stasjon,,59.833206,10.433624,,,0,NSR:StopPlace:3247,2,,5,700
NSR:Quay:81919,,Osen,,66.05676,13.571421,,,0,NSR:StopPlace:47368,2,,,700
NSR:Quay:100530,,Trondheim S,,63.436592,10.401982,,,0,NSR:StopPlace:659,2,,21,100
NSR:Quay:1126,,Sparbu stasjon,,63.918934,11.428811,,,0,NSR:StopPlace:687,2,,1,100
NSR:Quay:1129,,Trykkerud stasjon,,59.512077,9.336234,,,0,NSR:StopPlace:690,2,,1,100
NSR:Quay:100532,,Oteråga stasjon,,67.299286,14.87136,,,0,NSR:StopPlace:58415,2,,2,100
NSR:Quay:100531,,Trondheim S,,63.436523,10.402009,,,0,NSR:StopPlace:659,2,,22,100
NSR:Quay:1128,,Sparbu,,63.91967,11.428751,,,0,NSR:StopPlace:689,2,,,700
NSR:Quay:5729,,Asker stasjon,,59.833504,10.434029,,,0,NSR:StopPlace:3247,2,,3,700
NSR:Quay:7905,,Lysaker stasjon,,59.912746,10.638416,,,0,NSR:StopPlace:4377,2,,G,700
NSR:Quay:1121,,Sonsveien stasjon,,59.515636,10.725929,,,0,NSR:StopPlace:684,2,,2,100
NSR:Quay:1120,,Trollhättan,,58.286846,12.299867,,,0,NSR:StopPlace:683,2,,,700
NSR:Quay:28254,,Geilo stasjon,,60.534412,8.207036,,,0,NSR:StopPlace:16240,2,,,700
NSR:Quay:1123,,Trofors stasjon,,65.53782,13.382756,,,0,NSR:StopPlace:685,2,,2,100
NSR:Quay:1122,,Sonsveien stasjon,,59.515663,10.725771,,,0,NSR:StopPlace:684,2,,1,100
NSR:Quay:30330,,Brakerøya stasjon,,59.74373,10.231879,,,0,NSR:StopPlace:17352,2,,,700
NSR:Quay:1124,,Trofors stasjon,,65.53782,13.382812,,,0,NSR:StopPlace:685,2,,1,100
NSR:Quay:81915,,Røssvoll Joker,,66.356636,14.321533,,,0,NSR:StopPlace:47365,2,,,700
NSR:Quay:1116,,Solbråtan stasjon,,59.80098,10.804428,,,0,NSR:StopPlace:680,2,,2,100
NSR:Quay:1115,,Trengereid,,60.429245,5.624395,,,0,NSR:StopPlace:679,2,,,700
NSR:Quay:1118,,Trollhättan Centralstation,,58.287514,12.298897,,,0,NSR:StopPlace:681,2,,1,100
NSR:Quay:1117,,Solbråtan stasjon,,59.800976,10.804257,,,0,NSR:StopPlace:680,2,,1,100
NSR:Quay:1112,,Trengereid stasjon,,60.429817,5.625292,,,0,NSR:StopPlace:677,2,,1,100
NSR:Quay:1111,,Stoa stasjon,,58.465992,8.709398,,,0,NSR:StopPlace:676,2,,1,100
NSR:Quay:1113,,Trengereid stasjon,,60.4298,5.625429,,,0,NSR:StopPlace:677,2,,2,100
NSR:Quay:99221,,Storlien station,,63.31638,12.100295,,,0,NSR:StopPlace:46655,2,,,700
NSR:Quay:1104,,Tomter,,59.65962,11.003219,,,0,NSR:StopPlace:670,2,,,700
NSR:Quay:1107,,Snåsa stasjon,,64.24591,12.379875,,,0,NSR:StopPlace:673,2,,2,100
NSR:Quay:1106,,Torp stasjon,,59.16546,10.266241,,,0,NSR:StopPlace:672,2,,1,100
NSR:Quay:1108,,Snåsa stasjon,,64.24588,12.379977,,,0,NSR:StopPlace:673,2,,1,100
NSR:Quay:26293,,Hokksund stasjon,,59.76722,9.91139,,,0,NSR:StopPlace:15196,2,,A,700
NSR:Quay:26294,,Hokksund stasjon,,59.76731,9.91125,,,0,NSR:StopPlace:15196,2,,X,700
NSR:Quay:1101,,Tomter stasjon,,59.659885,11.002647,,,0,NSR:StopPlace:667,2,,1,100
NSR:Quay:1100,,Tomter stasjon,,59.65997,11.002716,,,0,NSR:StopPlace:667,2,,2,100
NSR:Quay:1103,,Steinvik stasjon,,61.25132,11.324058,,,0,NSR:StopPlace:669,2,,1,100
NSR:Quay:9064,,Nordby stasjon,,60.15474,11.180991,,,0,NSR:StopPlace:4983,2,,,700
NSR:Quay:9065,,Nordby stasjon,,60.154842,11.181147,,,0,NSR:StopPlace:4983,2,,,700
NSR:Quay:21642,,Strømshuguvegen,,61.242344,10.43426,,,0,NSR:StopPlace:12650,2,,,700
NSR:Quay:26,,Drammen stasjon,,59.74016,10.205207,,,0,NSR:StopPlace:11,2,,4,100
NSR:Quay:27,,Porsgrunn stasjon,,59.13939,9.658522,,,0,NSR:StopPlace:13,2,,,700
NSR:Quay:106023,,Stabekk,Bussoppstilling på nordsiden av stasjonen,59.908554,10.60749,,,0,NSR:StopPlace:707,2,,,700
NSR:Quay:106024,,Skøyen,Alternativ transport (Flytoget - Buss),59.92212,10.679285,,,0,NSR:StopPlace:153,2,,,700
NSR:Quay:22,,Drammen stasjon,,59.739967,10.20495,,,0,NSR:StopPlace:11,2,,1,100
NSR:Quay:84138,,Lønsdal stasjon,,66.74253,15.462865,,,0,NSR:StopPlace:49087,2,,,700
NSR:Quay:24,,Porsgrunn stasjon,,59.139538,9.65883,,,0,NSR:StopPlace:12,2,,1,100
NSR:Quay:20,,Drammen stasjon,,59.740093,10.205119,,,0,NSR:StopPlace:11,2,,3,100
NSR:Quay:21,,Porsgrunn stasjon,,59.1396,9.659107,,,0,NSR:StopPlace:12,2,,3,100
NSR:Quay:98793,,Bergen busstasjon,,60.388184,5.333536,,,0,NSR:StopPlace:30810,2,,,700
NSR:Quay:74109,,Statoil Rotvoll,,63.436707,10.47806,,,0,NSR:StopPlace:43208,2,,,700
NSR:Quay:19,,Porsgrunn stasjon,,59.139576,9.659005,,,0,NSR:StopPlace:12,2,,2,100
NSR:Quay:15,,Paradis stasjon,,58.956097,5.742285,,,0,NSR:StopPlace:8,2,,7,100
NSR:Quay:16,,Paradis stasjon,,58.956062,5.742127,,,0,NSR:StopPlace:8,2,,6,100
NSR:Quay:17,,Paradis,,58.95627,5.741593,,,0,NSR:StopPlace:10,2,,,700
NSR:Quay:18,,Drammen stasjon,,59.740025,10.205036,,,0,NSR:StopPlace:11,2,,2,100
NSR:Quay:13,,Greverud stasjon,,59.77331,10.806135,,,0,NSR:StopPlace:6,2,,2,100
NSR:Quay:14,,Greverud stasjon,,59.773273,10.806001,,,0,NSR:StopPlace:6,2,,1,100
NSR:Quay:101823,,Kløfta E6 Skibakk,,60.07802,11.150525,,,0,NSR:StopPlace:59289,2,,,700
NSR:Quay:10,,Otta stasjon,,61.7723,9.537064,,,0,NSR:StopPlace:4,2,,1,100
NSR:Quay:74110,,Statoil Rotvoll,,63.436733,10.480467,,,0,NSR:StopPlace:43208,2,,,700
NSR:Quay:34931,,Skien stasjon,,59.21879,9.602922,,,0,NSR:StopPlace:19974,2,,,700
NSR:Quay:76788,,Harran,,64.56126,12.49286,,,0,NSR:StopPlace:44627,2,,,700
NSR:Quay:76787,,Harran,,64.56126,12.492854,,,0,NSR:StopPlace:44627,2,,,700
NSR:Quay:83087,,Valnesfjord trafikknutepunkt,,67.29947,15.191554,,,0,NSR:StopPlace:48292,2,,,700
NSR:Quay:83086,,Valnesfjord trafikknutepunkt,,67.299194,15.191833,,,0,NSR:StopPlace:48292,2,,,700
NSR:Quay:900,,Bergen stasjon,,60.390224,5.333821,,,0,NSR:StopPlace:548,2,,4,100
NSR:Quay:901,,Bergen stasjon,,60.390038,5.333715,,,0,NSR:StopPlace:548,2,,1,100
NSR:Quay:905,,Bergen stasjon,,60.390198,5.333764,,,0,NSR:StopPlace:548,2,,3,100
NSR:Quay:9265,,Vevelstad stasjon,,59.756535,10.839566,,,0,NSR:StopPlace:5091,2,,,700
NSR:Quay:99651,,Tønsberg stasjon,,59.271244,10.409956,,,0,NSR:StopPlace:17700,2,,,700
NSR:Quay:906,,Kløve stasjon,,60.663235,6.535068,,,0,NSR:StopPlace:549,2,,1,100
NSR:Quay:907,,Ås stasjon,,59.663284,10.794639,,,0,NSR:StopPlace:547,2,,2,100
NSR:Quay:908,,Kløve stasjon,,60.6633,6.534923,,,0,NSR:StopPlace:550,2,,,700
NSR:Quay:909,,Ås,,59.663506,10.793786,,,0,NSR:StopPlace:551,2,,,700
NSR:Quay:21644,,Strømshuguvegen,,61.242207,10.433241,,,0,NSR:StopPlace:12650,2,,,700
